[{"title":"Grünauer Welle","address":{"leisure":"Grünauer Welle","house_number":"7","road":"Stuttgarter Allee","neighbourhood":"Wohnkomplex 4","suburb":"Grünau-Siedlung","city_district":"West","city":"Leipzig","state":"Sachsen","ISO3166-2-lvl4":"DE-SN","postcode":"04209","country":"Deutschland","country_code":"de"},"lat":"51.31507295","lon":"12.291681015468672","link":"https://www.leipzig.de/freizeit-kultur-und-tourismus/sport/sportstaettenbelegung/detailseite/detailseite/schwimmhalle-gruenauer-welle"},{"title":"Schwimmhalle Mitte","address":{"leisure":"Schwimmhalle Mitte","house_number":"84","road":"Kirschbergstraße","suburb":"Gohlis-Süd","city_district":"Nord","city":"Leipzig","state":"Sachsen","ISO3166-2-lvl4":"DE-SN","postcode":"04155","country":"Deutschland","country_code":"de"},"lat":"51.36225665","lon":"12.353394654258464","link":"https://www.leipzig.de/freizeit-kultur-und-tourismus/sport/sportstaettenbelegung/detailseite/detailseite/schwimmhalle-mitte"},{"title":"Schwimmhalle Nord","address":{"leisure":"Schwimmhalle Nord","house_number":"54","road":"Kleiststraße","suburb":"Eutritzsch","city_district":"Nord","city":"Leipzig","state":"Sachsen","ISO3166-2-lvl4":"DE-SN","postcode":"04157","country":"Deutschland","country_code":"de"},"lat":"51.37231965","lon":"12.38134070842299","link":"https://www.leipzig.de/freizeit-kultur-und-tourismus/sport/sportstaettenbelegung/detailseite/detailseite/schwimmhalle-nord"},{"title":"Schwimmhalle Nordost","address":{"leisure":"Schwimmhalle Nordost","house_number":"26","road":"Schönefelder Allee","neighbourhood":"Schönefeld","suburb":"Schönefeld-Abtnaundorf","city_district":"Nordost","city":"Leipzig","state":"Sachsen","ISO3166-2-lvl4":"DE-SN","postcode":"04347","country":"Deutschland","country_code":"de"},"lat":"51.358358550000005","lon":"12.404955916520343","link":"https://www.leipzig.de/freizeit-kultur-und-tourismus/sport/sportstaettenbelegung/detailseite/detailseite/schwimmhalle-nordost"},{"title":"Schwimmhalle Süd","address":{"leisure":"Schwimmhalle Süd","house_number":"10","road":"Tarostraße","suburb":"Zentrum-Südost","city_district":"Mitte","city":"Leipzig","state":"Sachsen","ISO3166-2-lvl4":"DE-SN","postcode":"04103","country":"Deutschland","country_code":"de"},"lat":"51.3239909","lon":"12.385783649999993","link":"https://www.leipzig.de/freizeit-kultur-und-tourismus/sport/sportstaettenbelegung/detailseite/detailseite/schwimmhalle-sued"},{"title":"Schwimmhalle Südost","address":{"leisure":"Schwimmhalle Südost","house_number":"35","road":"Kolmstraße","suburb":"Probstheida","city_district":"Südost","city":"Leipzig","state":"Sachsen","ISO3166-2-lvl4":"DE-SN","postcode":"04299","country":"Deutschland","country_code":"de"},"lat":"51.31632955","lon":"12.42836830011111","link":"https://www.leipzig.de/freizeit-kultur-und-tourismus/sport/sportstaettenbelegung/detailseite/detailseite/schwimmhalle-suedost"},{"title":"Schwimmhalle West","address":{"leisure":"Schwimmhalle West","house_number":"52a","road":"Hans-Driesch-Straße","suburb":"Leutzsch","city_district":"Altwest","city":"Leipzig","state":"Sachsen","ISO3166-2-lvl4":"DE-SN","postcode":"04179","country":"Deutschland","country_code":"de"},"lat":"51.34652235","lon":"12.311952829626495","link":"https://www.leipzig.de/freizeit-kultur-und-tourismus/sport/sportstaettenbelegung/detailseite/detailseite/schwimmhalle-west"},{"title":"Sportbad an der Elster","address":{"leisure":"Sauna im Sportbad an der Elster","house_number":"8","road":"Antonienstraße","suburb":"Plagwitz","city_district":"Südwest","city":"Leipzig","state":"Sachsen","ISO3166-2-lvl4":"DE-SN","postcode":"04229","country":"Deutschland","country_code":"de"},"lat":"51.3196487","lon":"12.3356885","link":"https://www.leipzig.de/freizeit-kultur-und-tourismus/sport/sportstaettenbelegung/detailseite/detailseite/sportbad-an-der-elster"},{"title":"Sommerbad Kleinzschocher","address":{"shop":"Sommerbad Kleinzschocher","house_number":"75","road":"Küchenholzallee","suburb":"Kleinzschocher","city_district":"Südwest","city":"Leipzig","state":"Sachsen","ISO3166-2-lvl4":"DE-SN","postcode":"04229","country":"Deutschland","country_code":"de"},"lat":"51.3165758","lon":"12.3384644","link":"https://www.leipzig.de/freizeit-kultur-und-tourismus/sport/sportstaettenbelegung/detailseite/detailseite/freibad-kleinzschocher"},{"title":"Schreberbad","address":{"leisure":"Schreberbad","house_number":"15","road":"Schreberstraße","neighbourhood":"Bachviertel","suburb":"Zentrum-West","city_district":"Mitte","city":"Leipzig","state":"Sachsen","ISO3166-2-lvl4":"DE-SN","postcode":"04109","country":"Deutschland","country_code":"de"},"lat":"51.338967100000005","lon":"12.358802401994044","link":"https://www.leipzig.de/freizeit-kultur-und-tourismus/sport/sportstaettenbelegung/detailseite/detailseite/freibad-schreberbad"},{"title":"Sommerbad Schönefeld","address":{"leisure":"Sommerbad Schönefeld","house_number":"39","road":"Volbedingstraße","neighbourhood":"Schönefeld","suburb":"Schönefeld-Abtnaundorf","city_district":"Nordost","city":"Leipzig","state":"Sachsen","ISO3166-2-lvl4":"DE-SN","postcode":"04357","country":"Deutschland","country_code":"de"},"lat":"51.3630321","lon":"12.411970819689838","link":"https://www.leipzig.de/freizeit-kultur-und-tourismus/sport/sportstaettenbelegung/detailseite/detailseite/freibad-schoenefeld"},{"title":"Sommerbad Südost","address":{"house_number":"173","road":"Oststraße","suburb":"Stötteritz","city_district":"Südost","city":"Leipzig","state":"Sachsen","ISO3166-2-lvl4":"DE-SN","postcode":"04299","country":"Deutschland","country_code":"de"},"lat":"51.3262935","lon":"12.4198936","link":"https://www.leipzig.de/freizeit-kultur-und-tourismus/sport/sportstaettenbelegung/detailseite/detailseite/freibad-suedost"},{"title":"Ökobad Lindenthal","address":{"house_number":"3","road":"Am Freibad","suburb":"Lindenthal","city_district":"Nordwest","city":"Leipzig","state":"Sachsen","ISO3166-2-lvl4":"DE-SN","postcode":"04158","country":"Deutschland","country_code":"de"},"lat":"51.3930018","lon":"12.3270532","link":"https://www.leipzig.de/freizeit-kultur-und-tourismus/sport/sportstaettenbelegung/detailseite/detailseite/oekobad-lindenthal"}]