[{"advanced":{"equipment":["Bänke","Spielwiese","Schattenplätze","Sandspielfläche"],"gaming_devices":["Rutsche","Doppelschaukel","Klettergerüst","Wippe"]},"district":"Ost,Mölkau","lat":51.3323846,"lines":"72, 73","location":"Paunsdorfer Straße / Anemonenweg","lon":12.4392597,"name":"Spielplatz 'Paunsdorfer Straße'","stops":"Haltestelle Anemonenweg","town":"Leipzig"},{"advanced":{"equipment":["Spielwiese","Schattenplätze","Bänke","Parkmöglichkeit:","öffentliche Parkplätze vorhanden"],"gaming_devices":["Kletter- und Rutschturm","Kletterstäbe","Gurtsteg","Schaukel","Reck"]},"district":"Schönefeld-Abtnaundorf,Nordost","lat":51.3688668,"lines":"70, 79","location":"Abtnaundorfer Straße / Heiterblickstraße","lon":12.4283612,"name":"Spielplatz 'Abtnaundorfer Park'","stops":"Haltestelle Heiterblickstraße","town":"Leipzig"},{"advanced":{"equipment":["Sandspielfläche","Spielwiese","Schattenplätze","Bänke","Parkmöglichkeit:","öffentliche Parkplätze vorhanden"],"gaming_devices":["Kletternetz"]},"district":"Südvorstadt,Süd","lat":51.3201581,"lines":"9, 60","location":"Arthur-Hoffmann-Straße","lon":12.3784884,"name":"Spielplatz 'Albrecht-Dürer-Platz'","stops":"Körnerstraße, Körnerstraße","town":"Leipzig"},{"advanced":{"equipment":["Spielwiese","Schattenplätze","Bänke","Parkmöglichkeit:","öffentliche Parkplätze vorhanden"],"gaming_devices":["Kletter- und Rutschturm","Balancierseil","Stehwippe","Tischtennisplatte","Schaukel"]},"district":"Südvorstadt,Süd","lat":51.3195729,"lines":"10, 11, 60, 74","location":"Andreasstraße / Scharnhorststraße","lon":12.3757592,"name":"Spielplatz 'Alexis-Schuhmann-Platz'","stops":"Karl-Liebknecht-Straße/Kurt-Eisner-Straße, Karl-Liebknecht-Straße/Kurt-Eisner-Straße","town":"Leipzig"},{"advanced":{"equipment":["Sandspielfläche","Spielwiese","Schattenplätze","Bänke","Parkmöglichkeit:","öffentliche Parkplätze vorhanden"],"gaming_devices":["Tischtennisplatte","Klettergerüst mit Rutsche","Schaukel","Matschtisch"]},"district":"Reudnitz-Thonberg,Südost","lat":51.3289108,"lines":"4, 60, 70","location":"Lipsiusstraße / Holsteinstraße","lon":12.4097101,"name":"Spielplatz 'Alfred-Frank-Platz'","stops":"Haltestelle Riebeckstraße/Oststraße, Haltestelle Holsteinstraße, Haltestelle Riebeckstraße/Oststraße","town":"Leipzig"},{"advanced":{"equipment":["Schattenplätze","Bänke","Parkmöglichkeit:","öffentliche Parkplätze vorhanden"],"gaming_devices":["Tischtennisplatte","Doppelpendel","Spieltonnen"]},"district":"Plagwitz,Südwest","lat":51.3396955,"lines":"14, 60","location":"Naumburger Straße / Höhe Zollschuppen","lon":12.3730747,"name":"Spielplatz 'Alte Gleisstraße'","stops":"Haltestelle S-Bahnhof Plagwitz, Haltestelle Naumburger Straße","town":"Leipzig"},{"advanced":{"equipment":["Bänke","Spielwiese","Parkmöglichkeit:","öffentliche Parkplätze vorhanden"],"gaming_devices":["Kletterturm","Rutsche","Kletternetz","Schaukel"]},"district":"Lausen-Grünau,West","lat":51.326078,"lines":"1, 61, 66, 80E, 161","location":"Alte Salzstraße","lon":12.3192088,"name":"Spielplatz 'Alte Salzstraße - Am Kindergarten'","stops":"Haltestelle Zschampertaue, Haltestelle Zschampertaue","town":"Leipzig"},{"advanced":{"equipment":["Spielwiese","Bänke","Parkmöglichkeit:","öffentliche Parkplätze vorhanden"],"gaming_devices":["Tischtennisplatte","Tore"]},"district":"Grünau-Mitte,West","lat":51.326078,"lines":"65, 66","location":"Alte Salzstraße","lon":12.3192088,"name":"Spielplatz 'Alte Salzstraße - Ballplatz'","stops":"Haltestelle Allee Center","town":"Leipzig"},{"advanced":{"equipment":["Rodelhügel","Spielwiese","Bänke","Parkmöglichkeit:","öffentliche Parkplätze vorhanden"],"gaming_devices":["Kletterhaus","Rutsche"]},"district":"Grünau-Mitte,West","lat":51.326078,"lines":"65, 66","location":"Alte Salzstraße","lon":12.3192088,"name":"Spielplatz 'Alte Salzstraße - Kletterplatz'","stops":"Haltestelle Allee Center","town":"Leipzig"},{"advanced":{"equipment":["Spielwiese","Bänke","Parkmöglichkeit:","öffentliche Parkplätze vorhanden"],"gaming_devices":["Tischtennisplatte","Rutsche","Rutsche mit Rollstuhlzugan","Federplatten"]},"district":"Grünau-Ost,West","lat":51.326078,"lines":"8, 15","location":"Alte Salzstraße","lon":12.3192088,"name":"Spielplatz 'Alte Salzstraße'","stops":"Haltestelle Parkallee","town":"Leipzig"},{"advanced":{"equipment":["Bänke","Parkmöglichkeit:","öffentliche Parkplätze vorhanden"],"gaming_devices":["Doppelschaukel","Rutsche","Karussell"]},"district":"Plaußig-Portitz,Nordost","lat":51.3396955,"lines":"83","location":"Alte Theklaer Straße (am Garagenplatz)","lon":12.3730747,"name":"Spielplatz 'Alte Theklaer Straße'","stops":"Haltestelle Alte Theklaer Straße","town":"Leipzig"},{"advanced":{"equipment":["Schattenplätze","Sandspielfläche","Spielwiese","Bänke","Parkmöglichkeit:","öffentliche Parkplätze vorhanden"],"gaming_devices":["Kletterturm","Rutsche","Doppelschaukel","Kletternetz","Wipptier","Kletterseil"]},"district":"Althen-Kleinpösna,Ost","lat":51.33866039999999,"lines":"73, 172","location":"Prof. Andreas-Schubert-Straße / Althener Anger","lon":12.5162131,"name":"Spielplatz 'Althener Anger'","stops":"Haltestelle Althener Anger","town":"Leipzig"},{"advanced":{"equipment":["Sitzgruppe aus Holz","Schattenplätze","Spielwiese","Bänke","Parkmöglichkeit:","öffentliche Parkplätze vorhanden"],"gaming_devices":["Hangelgerüst","Stehwippe","Sitzkarussell","Schaukel","Kletterholz","Gewichtdrücken"]},"district":"Wahren,Nordwest","lat":51.3635728,"lines":"7, 62","location":"Zum Waldbad / Kilometerweg","lon":12.3025705,"name":"Spielplatz 'Am alten Forsthaus'","stops":"Haltestelle Südstraße, Haltestelle Südstraße","town":"Leipzig"},{"advanced":{"equipment":["Schattenplätze","Spielwiese","Bänke","Sandspielfläche","Parkmöglichkeit:","öffentliche Parkplätze vorhanden"],"gaming_devices":["Doppelschaukel","Tischtennisplatte","Kletterhaus"]},"district":"Südvorstadt,Süd","lat":51.3195612,"lines":"9, 60","location":"Arndtstraße / Bernhard-Göring-Straße","lon":12.3767275,"name":"Spielplatz 'Am Amtsgericht'","stops":"Körnerstraße, Körnerstraße","town":"Leipzig"},{"advanced":{"equipment":["Schattenplätze","Bänke","Parkmöglichkeit:","öffentliche Parkplätze vorhanden"],"gaming_devices":["Reck","Klettergerüst","Seilschaukel"]},"district":"Liebertwolkwitz,Südost","lat":51.2850265,"lines":"75, 172","location":"Jahnstraße","lon":12.4610464,"name":"Spielplatz 'Am Angerteich'","stops":"Haltestelle Schwarzes Ross","town":"Leipzig"},{"advanced":{"equipment":["Sandspielfläche","Spielwiese","Schattenplätze","Bänke","Parkmöglichkeit:","öffentliche Parkplätze befinden sich am Hauptzugang zum Auensee."],"gaming_devices":["Holzschiff","Reifenpendel","Klettermast","Steindino","Hängematte","Info","Ein Teilbereich des Holzschiffes muss aufgrund von Mängeln bis auf Weiteres gesperrt bleiben."]},"district":"Wahren,Nordwest","lat":51.3396955,"lines":"80","location":"östlicher Teil des Auensee","lon":12.3730747,"name":"Spielplatz 'Am Auensee'","stops":"Haltestelle Auensee","town":"Leipzig"},{"advanced":{"equipment":["Schattenplätze","Sandspielfläche","Bänke","Parkmöglichkeit:","öffentliche Parkplätze vorhanden"],"gaming_devices":["Tischtennisplatte","Doppelschaukel","Klettergerüst","Stehwippe","Balancierbalken","Reck"]},"district":"Lützschena-Stahmeln,Nordwest","lat":51.384042,"lines":"11","location":"Am Brunnen / Elsterberg","lon":12.2700194,"name":"Spielplatz 'Am Brunnen'","stops":"Haltestelle Freirodaer Weg","town":"Leipzig"},{"advanced":{"equipment":["Spielwiese","Bänke","Hinweis:","Der Zugang zum Spielplatz ist nur über eine Treppe oder die Böschung möglich.","Parkmöglichkeit:","öffentliche Parkplätze vorhanden"],"gaming_devices":["Kletterhölzer","Seile"]},"district":"Großzschocher,Südwest","lat":51.2865905,"lines":"65","location":"Lauerscher Weg","lon":12.3417077,"name":"Spielplatz 'Am Cospudener See'","stops":"Haltestelle Nordstrand","town":"Leipzig"},{"advanced":{"equipment":["Spielwiese","Bänke","Parkmöglichkeit:","öffentliche Parkplätze vorhanden"],"gaming_devices":["Kletterwand","Karussell","Wipptier"]},"district":"Althen-Kleinpösna,Ost","lat":51.3049077,"lines":"73","location":"Am Dorfteich / Durch die Felder","lon":12.5106443,"name":"Spielplatz 'Am Dorfteich'","stops":"Haltestelle Kleinpösna","town":"Leipzig"},{"advanced":{"equipment":["Bänke","Spielwiese","Parkmöglichkeit:","öffentliche Parkplätze vorhanden"],"gaming_devices":["Klettersteine"]},"district":"Knautkleeberg-Knauthain,Südwest","lat":51.2685372,"lines":"63","location":"Hagebuttenweg","lon":12.2918939,"name":"Spielplatz 'Am Felsenthal'","stops":"Haltestelle Am Klucksgraben","town":"Leipzig"},{"advanced":{"equipment":["Ballspielplatz","Spielwiese","Schattenplätze","Bänke","Sandspielfläche","Parkmöglichkeit:","öffentliche Parkplätze vorhanden"],"gaming_devices":["Kletterpferd","Balancierstrecke","Reifenschaukel","Karussell","Reck","Wippe","Matschtisch","Steintier","Wipptiere","Rutsche","Kletterzelt","Tischtennisplatte"]},"district":"Südvorstadt,Süd","lat":51.3160473,"lines":"9, 10, 11, 70, 89","location":"Fockestraße","lon":12.3656277,"name":"Spielplatz 'Am Fockeberg'","stops":"HTWK, HTWK","town":"Leipzig"},{"advanced":{"equipment":["Schattenplätze","Bänke","Parkmöglichkeit:","öffentliche Parkplätze vorhanden"],"gaming_devices":["Doppelschaukel","Reck","Klettergerüst"]},"district":"Liebertwolkwitz,Südost","lat":51.28766,"lines":"172","location":"Am Gänseanger / Alte Tauchaer Straße","lon":12.4615346,"name":"Spielplatz 'Am Gänseanger'","stops":"Haltestelle Roßstraße","town":"Leipzig"},{"advanced":{"equipment":["Spielwiese","Parkmöglichkeit:","öffentliche Parkplätze vorhanden"],"gaming_devices":["Fussballtore"]},"district":"Schönefeld-Ost,Nordost","lat":51.3396955,"lines":"1","location":"Heinrich-Büchner-Straße / am Garagenhof","lon":12.3730747,"name":"Spielplatz 'Am Garagenhof'","stops":"Haltestelle Ossietzkystraße/Gorkistraße","town":"Leipzig"},{"advanced":{"equipment":["Spielwiese","Schattenplätze","Bänke","Parkmöglichkeit:","öffentliche Parkplätze vorhanden"],"gaming_devices":["Tischtennisplatte","Kletter- und Rutschturm","Schaukel","Wipptier"]},"district":"Wiederitzsch,Nord","lat":51.3913866,"lines":"16, 87","location":"Am Haferring","lon":12.3634663,"name":"Spielplatz 'Am Haferring'","stops":"Haltestelle Dachauer Straße, Haltestelle Dachauer Straße","town":"Leipzig"},{"advanced":{"equipment":["Sandspielfläche","Spielwiese","Bänke","Parkmöglichkeit:","öffentliche Parkplätze vorhanden"],"gaming_devices":["Kletterturm","Rutsche","Schaukel","Steindino"]},"district":"Grünau-Nord,West","lat":51.3254062,"lines":"15","location":"Neptunweg","lon":12.2685109,"name":"Spielplatz 'Am Kindergarten'","stops":"Haltestelle Saturnstraße","town":"Leipzig"},{"advanced":{"equipment":["Schattenplätze","Bänke","Sandspielfläche","Sitzecke","Parkmöglichkeit:","öffentliche Parkplätze vorhanden"],"gaming_devices":["Kletterpodest","Rutsche"]},"district":"Grünau-Nord,West","lat":51.3180199,"lines":"62, 65, 66","location":"Am kleinen Feld","lon":12.2632347,"name":"Spielplatz 'Am kleinen Feld'","stops":"Haltestelle Am kleinen Feld","town":"Leipzig"},{"advanced":{"equipment":["Spielwiese","Bänke","Parkmöglichkeit:","öffentliche Parkplätze vorhanden"],"gaming_devices":["Hangrutsche","Kletterseil"]},"district":"Knautkleeberg-Knauthain,Südwest","lat":51.2698648,"lines":"63","location":"Am Klucksgraben / Büttnerweg","lon":12.2947719,"name":"Spielplatz 'Am Klucksgraben'","stops":"Haltestelle Am Klucksgraben","town":"Leipzig"},{"advanced":{"equipment":["Bänke","Parkmöglichkeit:","öffentliche Parkplätze vorhanden"],"gaming_devices":["Doppelschaukel","Rutsche","Wippe"]},"district":"Knautkleeberg-Knauthain,Südwest","lat":51.2671235,"lines":"63","location":"Moosbeerweg","lon":12.293741,"name":"Spielplatz 'Am Moosbeerweg'","stops":"Haltestelle Am Klucksgraben","town":"Leipzig"},{"advanced":{"equipment":["Bänke","Schatten","Parkmöglichkeit:","öffentliche Parkplätze vorhanden"],"gaming_devices":["Rutschkugel"]},"district":"Zentrum-Nordwest,Mitte","lat":51.348291,"lines":"4","location":"Am Mückenschlößchen","lon":12.3529924,"name":"Spielplatz 'Am Mückenschlößchen'","stops":"Haltestelle Am Mückenschlößchen","town":"Leipzig"},{"advanced":{"equipment":["Spielwiese","Schattenplätze","Parkmöglichkeit:","öffentliche Parkplätze vorhanden"],"gaming_devices":["Wipptier","Podest","Holzfigur"]},"district":"Kleinzschocher,Südwest","lat":51.3171127,"lines":"3","location":"Durchgang Windorfer Straße / Kantatenweg","lon":12.3303618,"name":"Spielplatz 'Am Obstgarten'","stops":"Haltestelle Schwartzestraße","town":"Leipzig"},{"advanced":{"equipment":["Sandspielfläche","Spielwiese","Bänke","Parkmöglichkeit:","öffentliche Parkplätze vorhanden"],"gaming_devices":["Rutsche","Wippe","Schaukel"]},"district":"Burghausen-Rückmarsdorf,Alt-West","lat":51.34968509999999,"lines":"62, 130, 131","location":"Ochsenweg","lon":12.2689786,"name":"Spielplatz 'Am Ochsenweg'","stops":"Haltestelle Löwencenter","town":"Leipzig"},{"advanced":{"equipment":["Sandspielfläche","Bänke","Parkmöglichkeit:","öffentliche Parkplätze vorhanden"],"gaming_devices":["Kletterburg","Rutsche","Doppelschaukel","Wippe","Reck","Holzhaus"]},"district":"Knautkleeberg-Knauthain,Südwest","lat":51.2751039,"lines":"3","location":"Pilzanger","lon":12.3058869,"name":"Spielplatz 'Am Pilzanger'","stops":"Haltestelle Knautkleeberg","town":"Leipzig"},{"advanced":{"equipment":["Sandspielfläche","Schattenplätze","Bänke","Parkmöglichkeit:","öffentliche Parkplätze vorhanden"],"gaming_devices":["Sandspielkombination","Karussell"]},"district":"Probstheida,Südost","lat":51.3012869,"lines":"15, 76","location":"Polenweg","lon":12.4400963,"name":"Spielplatz 'Am Polenweg'","stops":"Haltestelle Franzosenallee, Haltestelle Schweizerbogen","town":"Leipzig"},{"advanced":{"equipment":["Spielwiese","Bänke","Parkmöglichkeit:","öffentliche Parkplätze vorhanden"],"gaming_devices":["Doppelschaukel","Kletter- und Rutschturm","Holztische und Stühle"]},"district":"Althen-Kleinpösna,Ost","lat":51.30456239999999,"lines":"73","location":"Am Pösgraben","lon":12.5151594,"name":"Spielplatz 'Am Pösgraben'","stops":"Haltestelle Kleinpösna","town":"Leipzig"},{"advanced":{"equipment":["Sitzgruppe mit Tisch","Bänke","Spielwiese","Parkmöglichkeit:","öffentliche Parkplätze vorhanden"],"gaming_devices":["Klettergerüst","Rutsche","Sitzkarussell"]},"district":"Hartmannsdorf-Knautnaundorf,Südwest","lat":51.2728967,"lines":"120","location":"Rehbacher Anger","lon":12.2791997,"name":"Spielplatz 'Am Rehbacher Anger'","stops":"Haltestelle Rehbach","town":"Leipzig"},{"advanced":{"equipment":["Bänke","Spielwiese","Parkmöglichkeit:","öffentliche Parkplätze vorhanden"],"gaming_devices":["Tischtennisplatte"]},"district":"Altlindenau,Alt-West","lat":51.3349535,"lines":"8, 15","location":"Demmeringstraße","lon":12.3231163,"name":"Spielplatz 'Am Robert-Schumann-Gymnasium'","stops":"Haltestelle Henriettenstraße","town":"Leipzig"},{"advanced":{"equipment":["Sandspielfläche","Bänke","Parkmöglichkeit:","öffentliche Parkplätze vorhanden"],"gaming_devices":["Rutsche","Kletterseil"]},"district":"Knautkleeberg-Knauthain,Südwest","lat":51.2679653,"lines":"63","location":"Schwarzdornweg","lon":12.2962293,"name":"Spielplatz 'Am Schwarzdornweg'","stops":"Haltestelle Am Klucksgraben","town":"Leipzig"},{"advanced":{"equipment":["Schattenplätze","Bänke","Sandspielfläche","Parkmöglichkeit:","öffentliche Parkplätze vorhanden"],"gaming_devices":["Klettergerüst","Rutschturm","Schaukel"]},"district":"Probstheida,Südost","lat":51.3012917,"lines":"15, 76","location":"Tschechenbogen","lon":12.4384277,"name":"Spielplatz 'Am Tschechenbogen'","stops":"Haltestelle Franzosenallee, Haltestelle Schweizerbogen","town":"Leipzig"},{"advanced":{"equipment":["Bänke","Parkmöglichkeit:","öffentliche Parkplätze vorhanden"],"gaming_devices":["Tischtennisplatten","Streetballkorb","Fußballtore"]},"district":"Grünau-Ost,West","lat":51.3217887,"lines":"8, 15","location":"Am Übergang","lon":12.3045583,"name":"Spielplatz 'Am Übergang'","stops":"Haltestelle Grünauer Allee","town":"Leipzig"},{"advanced":{"equipment":["Spielwiese","Schattenplätze","Bänke","Parkmöglichkeit:","öffentliche Parkplätze vorhanden"],"gaming_devices":["Steinspirale","Streetballkorb"]},"district":"Leutzsch,Alt-West","lat":51.3487692,"lines":"7, 67","location":"Am Wasserschloß","lon":12.3167273,"name":"Spielplatz 'Am Wasserschloß'","stops":"Haltestelle Rathaus Leutzsch, Haltestelle Rathaus Leutzsch","town":"Leipzig"},{"advanced":{"equipment":["Spielwiese","Rundbank","Schattenplätze","Parkmöglichkeit:","öffentliche Parkplätze vorhanden"],"gaming_devices":["Tischtennisplatte"]},"district":"Stötteritz,Südost","lat":51.3213318,"lines":"4","location":"Ampéreweg / Jouleweg","lon":12.4331806,"name":"Spielplatz 'Ampéreweg'","stops":"Haltestelle Holzhäuser Straße","town":"Leipzig"},{"advanced":{"equipment":["Bänke","Parkmöglichkeit:","öffentliche Parkplätze vorhanden"],"gaming_devices":["Kletterburg","Rutsche","Holzsteg","Kletterseil"]},"district":"Grünau-Mitte,West","lat":51.3198799,"lines":"8, 15, 61, 65, 66, 80E, 161","location":"Höhe Ulmer Straße","lon":12.2856425,"name":"Spielplatz 'An den Gleisen'","stops":"Haltestelle Schönauer Ring, Haltestelle Schönauer Ring","town":"Leipzig"},{"advanced":{"equipment":["Pavillon","Spielwiese","Schattenplätze","Bänke","Parkmöglichkeit:","öffentliche Parkplätze vorhanden"],"gaming_devices":["Doppelschaukel","Kletterturm","Hängebrücke","2 Rutschen","Wippe"]},"district":"Burghausen-Rückmarsdorf,Alt-West","lat":51.34344979999999,"lines":"130, 131","location":"An den Linden / Tucholskystraße","lon":12.2745964,"name":"Spielplatz 'An den Linden'","stops":"Haltestelle Zum Bahnhof","town":"Leipzig"},{"advanced":{"equipment":["öffentliche Grill- und Feuerstelle","Bänke","Schattenplätze","Sandspielfläche","Spielwiese","Parkmöglichkeit:","öffentliche Parkplätze vorhanden"],"gaming_devices":["Fitnessgeräte","Balancierstrecke","Kletter- und Rutschturm","Fussballpaltz","Streetballplatz","Skaterbereich"]},"district":"Schleußig,Südwest","lat":51.3396955,"lines":"1, 2","location":"Anton-Bruckner-Allee / im Clara-Zetkin-Park","lon":12.3730747,"name":"Spielplatz 'An der AOK'","stops":"Holbeinstraße","town":"Leipzig"},{"advanced":{"equipment":["Spielwiese","Bänke","Parkmöglichkeit:","öffentliche Parkplätze vorhanden"],"gaming_devices":["Doppelseilbahn","Skaterrampe"]},"district":"Liebertwolkwitz,Südost","lat":51.2785124,"lines":"75","location":"Zur Kuhweide","lon":12.4641576,"name":"Spielplatz 'An der Badeanlage'","stops":"Haltestelle Zur Alten Sandgrube","town":"Leipzig"},{"advanced":{"equipment":["Streetballfeld","Bänke","Parkmöglichkeit:","öffentliche Parkplätze vorhanden"],"gaming_devices":["Tischtennisplatten","Pendel","Wipptiere"]},"district":"Grünau-Mitte,West","lat":51.3141198,"lines":"61, 66, 80E, 161","location":"Alte Salzstraße / Mannheimer Straße","lon":12.2858067,"name":"Spielplatz 'An der Fröbel-Schule'","stops":"Haltestelle Alte Salzstraße","town":"Leipzig"},{"advanced":{"equipment":["Schattenplätze","Bänke","Parkmöglichkeit:","öffentliche Parkplätze vorhanden"],"gaming_devices":["Klettergerüst","Rutsche","Kletternetz","Doppelschaukel"]},"district":"Engelsdorf,Ost","lat":51.3414736,"lines":"72","location":"An der Grundschule","lon":12.4876091,"name":"Spielplatz 'An der Grundschule'","stops":"Haltestelle Klempererstraße","town":"Leipzig"},{"advanced":{"equipment":["überdachter Sitzbereich","Schattenplätze","Bänke","Parkmöglichkeit:","öffentliche Parkplätze vorhanden"],"gaming_devices":["Mastpendel","Klettergerüst","Streetballplatz"]},"district":"Lindenau,Alt-West","lat":51.33247830000001,"lines":"8, 15","location":"Helmholtzstraße","lon":12.3297667,"name":"Spielplatz 'An der Helmholtzschule'","stops":"Haltestelle Henriettenstraße","town":"Leipzig"},{"advanced":{"equipment":["Spielwiese","Schattenplätze","Bänke","Parkmöglichkeit:","öffentliche Parkplätze vorhanden"],"gaming_devices":["Seilkarussell","Kletter- und Rutschturm"]},"district":"Holzhausen,Südost","lat":51.3110072,"lines":"74, 172","location":"An der Kirche / Hauptstraße","lon":12.4653243,"name":"Spielplatz 'An der Kirche'","stops":"Haltestelle Hauptstraße","town":"Leipzig"},{"advanced":{"equipment":["Sandspielfläche","Schattenplätze","Spielwiese","Bänke","Parkmöglichkeit:","öffentliche Parkplätze vorhanden"],"gaming_devices":["Tischtennisplatte","Hangrutsche","Hängebrücke"]},"district":"Marienbrunn,Süd","lat":51.3061752,"lines":"10, 16","location":"An der Märchenwiese","lon":12.3964745,"name":"Spielplatz 'An der Märchenwiese '","stops":"Haltestelle An der Märchenwiese","town":"Leipzig"},{"advanced":{"equipment":["Bänke","Sandspielfläche","Spielwiese","Parkmöglichkeit:","öffentliche Parkplätze vorhanden"],"gaming_devices":["Holz- und Klettertier Nashorn"]},"district":"Grünau-Ost,West","lat":51.3247841,"lines":"8, 15","location":"Parkallee ","lon":12.2954956,"name":"Spielplatz 'An der Parkallee - Holzplatz'","stops":"Haltestelle Parkallee","town":"Leipzig"},{"advanced":{"equipment":["Spielwiese","Parkmöglichkeit:","öffentliche Parkplätze vorhanden"],"gaming_devices":["Tischtennisplatten"]},"district":"Grünau-Ost,West","lat":51.3247841,"lines":"8, 15, 61, 161","location":"Parkallee","lon":12.2954956,"name":"Spielplatz 'An der Parkallee - Tischtennisplatz'","stops":"Haltestelle Parkallee, Haltestelle Weißdornstraße","town":"Leipzig"},{"advanced":{"equipment":["Spielwiese","Bänke","Parkmöglichkeit:","öffentliche Parkplätze vorhanden"],"gaming_devices":["Drehscheibe","Rodelhügel","Streetballplatz"]},"district":"Lindenthal,Nordwest","lat":51.392062,"lines":"87, 88, 90","location":"An der Schule","lon":12.3332454,"name":"Spielplatz 'An der Schule'","stops":"Haltestelle An der Schule","town":"Leipzig"},{"advanced":{"equipment":["Spielwiese","Schattenplätze","Bänke","Parkmöglichkeit:","öffentliche Parkplätze vorhanden"],"gaming_devices":["2 Tischtennisplatten"]},"district":"Marienbrunn,Süd","lat":51.3396955,"lines":"10, 16","location":"An der Märchenwiese (Wendeschleife)","lon":12.3730747,"name":"Spielplatz 'An der Wendeschleife'","stops":"Haltestelle An der Märchenwiese","town":"Leipzig"},{"advanced":{"equipment":["Spielwiese","Bänke","Parkmöglichkeit:","öffentliche Parkplätze vorhanden"],"gaming_devices":["Kletterpyramide"]},"district":"Grünau-Nord,West","lat":51.3191831,"lines":"15, 62, 65, 66","location":"Andromedaweg","lon":12.2704691,"name":"Spielplatz 'Andromedaweg'","stops":"Haltestelle Plovdiver Straße, Haltestelle Plovdiver Straße","town":"Leipzig"},{"advanced":{"equipment":["Schattenplätze","Spielwiese","Bänke","Parkmöglichkeit:","öffentliche Parkplätze vorhanden"],"gaming_devices":["Schaukel","Balancierstrecke","Holzelemente","Klettersteine","Spielkiste"]},"district":"Altlindenau,Alt-West","lat":51.3373924,"lines":"7, 130, 131","location":"Apostelstraße","lon":12.3291953,"name":"Spielplatz 'Apostelstraße'","stops":"Haltestelle Georg-Schwarz-Straße/Merseburger Straße, Haltestelle Georg-Schwarz-Straße/Merseburger Straße","town":"Leipzig"},{"advanced":{"equipment":["Spielwiese","Bänke","Parkmöglichkeit:","öffentliche Parkplätze vorhanden"],"gaming_devices":["Torwand"]},"district":"Engelsdorf,Ost","lat":51.3479408,"lines":"73, 172, 175","location":"Arnoldplatz ","lon":12.4928504,"name":"Spielplatz 'Arnoldplatz - Ballplatz'","stops":"Haltetstelle Sabinenstraße","town":"Leipzig"},{"advanced":{"equipment":["Sandspielfläche","Spielwiese","Spielhügel","Bänke","Parkmöglichkeit:","öffentliche Parkplätze vorhanden"],"gaming_devices":["Kletterturm","Rutsche","Holzhaus"]},"district":"Engelsdorf,Ost","lat":51.3479408,"lines":"73, 172, 175","location":"Arnoldplatz","lon":12.4928504,"name":"Spielplatz 'Arnoldplatz - Kletterplatz'","stops":"Haltestelle Sabinenstraße","town":"Leipzig"},{"advanced":{"equipment":["Schattenplätze","Spielwiese","Bänke","Parkmöglichkeit:","öffentliche Parkplätze vorhanden"],"gaming_devices":["Tischtennisplatte","Flüsterkugel","Streetballkorb"]},"district":"Großzschocher,Südwest","lat":51.3072439,"lines":"3","location":"Arthur-Nagel-Straße","lon":12.3220419,"name":"Spielplatz 'Arthur-Nagel-Straße'","stops":"Haltestelle Arthur-Nagel-Straße","town":"Leipzig"},{"advanced":{"equipment":["Schattenplätze","Spielwiese","Bänke","Parkmöglichkeit:","öffentliche Parkplätze vorhanden"],"gaming_devices":["Wipptier","Reifenpendel","Kletterpodest","Pendelwippe","Federsitz"]},"district":"Holzhausen,Südost","lat":51.3059559,"lines":"74","location":"Arthur-Polenz-Straße","lon":12.4561384,"name":"Spielplatz 'Arthur-Polenz-Straße'","stops":"Arthur-Polenz-Straße","town":"Leipzig"},{"advanced":{"equipment":["Bänke","Parkmöglichkeit:","öffentliche Parkplätze vorhanden"],"gaming_devices":["Tischtennisplatte"]},"district":"Gohlis-Süd,Nord","lat":51.3081022,"lines":"10, 11, 12, S10","location":"Auerbachplatz","lon":12.3733291,"name":"Spielplatz 'Auerbachplatz'","stops":"Haltestelle Georg-Schuhmann-Straße/Lützowstraße, Haltestelle Gohlis","town":"Leipzig"},{"advanced":{"equipment":["Spielwiese","Schattenplätze","Bänke","Parkmöglichkeit:","öffentliche Parkplätze vorhanden"],"gaming_devices":["Klettergerüst","Rutsche","Doppelschaukel"]},"district":"Engelsdorf,Ost","lat":51.3340299,"lines":"72, 172","location":"Baumeister-Günther-Straße","lon":12.4783219,"name":"Spielplatz 'August-Bebel-Platz'","stops":"Haltestelle Arthur-Winkler-Straße","town":"Leipzig"},{"advanced":{"equipment":["Sandspielfläche","Bänke","Parkmöglichkeit:","öffentliche Parkplätze vorhanden"],"gaming_devices":["Doppelschaukel","Rutschturm"]},"district":"Liebertwolkwitz,Südost","lat":51.277988,"lines":"75, 143","location":"August-Scheibe-Straße / Carl-Munde-Straße","lon":12.4668539,"name":"Spielplatz 'August-Scheibe-Straße'","stops":"Haltestelle Störmthaler Straße","town":"Leipzig"},{"advanced":{"equipment":["Bänke","Parkmöglichkeit:","öffentliche Parkplätze sind vorhanden"],"gaming_devices":["Holzeidechse"]},"district":"Südost,Holzhausen","lat":51.3051188,"lines":"74, 172","location":"Azaleenweg","lon":12.4637168,"name":"Spielplatz 'Azaleenweg'","stops":"Haltestelle Sächisches Haus","town":"Leipzig"},{"advanced":{"equipment":["Schattenplätze","Sandspielfläche","Bänke","Parkmöglichkeit:","öffentliche Parkplätze vorhanden"],"gaming_devices":["Wipptier","Wippe","Klettergerüst"]},"district":"Baalsdorf,Ost","lat":51.32273010000001,"lines":"73, 172","location":"Baalsdorfer Anger","lon":12.4843066,"name":"Spielplatz 'Baalsdorfer Anger'","stops":"Haltestelle Baalsdorfer Straße","town":"Leipzig"},{"advanced":{"equipment":["Spielwiese","Bänke","Parkmöglichkeit:","öffentliche Parkplätze vorhanden"],"gaming_devices":["Mastkreuzpendel","Drehscheibe","Tischtennisplatte","Rutschturm","Kletterwand","Wippe","Wipptier"]},"district":"Baalsdorf,Ost","lat":51.3208158,"lines":"73, 172","location":"Kurt-Hänselmann-Weg","lon":12.47621,"name":"Spielplatz 'Balduinplatz'","stops":"Haltestelle Baalsdorfer Straße","town":"Leipzig"},{"advanced":{"equipment":["Spielwiese","Bänke","Parkmöglichkeit:","öffentliche Parkplätze vorhanden"],"gaming_devices":["Hinweis:","Aufgrund von Umbauarbeiten sind derzeit keine Spielgeräte vorhanden. Der Umbau ist für das Frühjahr 2014 vorgesehen.","Parkmöglichkeit:","öffentliche Parkplätze vorhanden"]},"district":"Zentrum-Nord,Mitte","lat":51.3545737,"lines":"10, 11, 16","location":"Balzacstraße","lon":12.3746051,"name":"Spielplatz 'Balzacstraße'","stops":"Haltestelle Chausseehaus","town":"Leipzig"},{"advanced":{"equipment":["Sandspielfläche","Spielwiese","Bänke","Parkmöglichkeit:","öffentliche Parkplätze vorhanden"],"gaming_devices":["Tischtennisplatten","Streetballkorb","Fußballtore","Balancierholz","Reck","Kletterkamel"]},"district":"Neulindenau,Alt-West","lat":51.32928039999999,"lines":"8, 15, 80","location":"Bausestraße / Groitzscher Straße","lon":12.3177768,"name":"Spielplatz 'Bausestraße'","stops":"Haltestelle Radiusstraße, Haltetelle Radiusstraße","town":"Leipzig"},{"advanced":{"equipment":["Findlinge","Schattenplätze","Bänke","Sandspielfläche","Spielwiese","Parkmöglichkeit:","öffentliche Parkplätze vorhanden"],"gaming_devices":["Kletter- und Rutschturm","Tischtennisplatte","Streetballkorb"]},"district":"Neustadt-Neuschönefeld,Ost","lat":51.3400432,"lines":"4, 7, 70, 72, 73","location":"Lilienstraße","lon":12.4047251,"name":"Spielplatz 'Bernhardiplatz'","stops":"Haltestelle Koehlerstraße, Haltestelle Koehlerstraße","town":"Leipzig"},{"advanced":{"equipment":["Schattenplätze","Bänke","Spielwiese","Parkmöglichkeit:","öffentliche Parkplätze vorhanden"],"gaming_devices":["Streetballkorb","Tischtennisplatte"]},"district":"Böhlitz-Ehrenberg,Alt-West","lat":51.355515,"lines":"7, 62","location":"Bielastraße","lon":12.2899347,"name":"Spielplatz 'Bielagarten'","stops":"Haltestelle Südstraße, Haltestelle Südstraße","town":"Leipzig"},{"advanced":{"equipment":["Findlinge","Spielwiese","Schattenplätze","Bänke","Parkmöglichkeit:","öffentliche Parkplätze vorhanden"],"gaming_devices":["Kletterturm","Rutschturm","Wippe","Doppelschaukel"]},"district":"Burghausen-Rückmarsdorf,Alt-West","lat":51.35356609999999,"lines":"62","location":"Bienitzstraße","lon":12.2561311,"name":"Spielplatz 'Bienitzstraße'","stops":"Haltestelle Burghausen","town":"Leipzig"},{"advanced":{"equipment":["Sandspielfläche","Spielwiese","Bänke","Parkmöglichkeit:","öffentliche Parkplätze vorhanden"],"gaming_devices":["Rutschenhügel","Trampolin","Wippe","Wackeltier","Matschtische","Holzkugelbahn","Torstäbe"]},"district":"Großzschocher,Südwest","lat":51.304632,"lines":"3","location":"Bismarckstraße","lon":12.3228661,"name":"Spielplatz 'Bismarckstraße'","stops":"Haltestelle Kunzestraße","town":"Leipzig"},{"advanced":{"equipment":["Spielwiese","Bänke","Parkmöglichkeit:","öffentliche Parkplätze vorhanden"],"gaming_devices":["Kletternetz"]},"district":"Lausen-Grünau,West","lat":51.313007,"lines":"62, 66","location":"Brackestraße ","lon":12.2663839,"name":"Spielplatz 'Brackestraße'","stops":"Haltestelle Selliner Straße - Gesundheitszentrum","town":"Leipzig"},{"advanced":{"equipment":["Schattenplätze","Bänke","Parkmöglichkeit:","öffentliche Parkplätze vorhanden"],"gaming_devices":["2 Wasserkurbeln","Wasserbahn","Wasserpumpe"]},"district":"Lindenau,Alt-West","lat":51.323773,"lines":"8, 15","location":"Gießerbrücke / Gießerstraße","lon":12.3268262,"name":"Spielplatz 'Brückenplatz'","stops":"Haltestelle Henriettenstraße","town":"Leipzig"},{"advanced":{"equipment":["Spielwiese mit Hügeln","Findlinge","Parkmöglichkeit:","öffentliche Parkplätze vorhanden"],"gaming_devices":["Tischtennisplatte"]},"district":"Möckern,Nordwest","lat":51.3773439,"lines":"80, 90, S10","location":"Defoestraße / Travniker Straße","lon":12.3305202,"name":"Spielplatz 'Bürgerpark Sternsiedlung'","stops":"Haltestelle Sternsiedlung Nord, Haltestelle Slevogtstraße","town":"Leipzig"},{"advanced":{"equipment":["Spielwiese","Schattenplätze","Bänke","Parkmöglichkeit:","öffentliche Parkplätze vorhanden"],"gaming_devices":["Kletterhölzer","Holzhaus","Wasserpumpe"]},"district":"Dölitz-Dösen,Süd","lat":51.2873534,"lines":"11","location":"Im Dölitzer Holz","lon":12.3842953,"name":"Spielplatz 'Das KinderReich'- Agra","stops":"Haltestelle Leinestraße","town":"Leipzig"},{"advanced":{"equipment":["Bänke","Sandspielfläche","Spielwiese","Parkmöglichkeit:","öffentliche Parkplätze vorhanden"],"gaming_devices":["Kletterturm","Rutsche","Federwippe"]},"district":"Lausen-Grünau,West","lat":51.326078,"lines":"1, 61, 66, 80E, 161","location":"Deiwitzweg /Alte Salzstraße","lon":12.3192088,"name":"Spielplatz 'Deiwitzweg - Kletterplatz'","stops":"Krakauer Straße, Schönauer Ring","town":"Leipzig"},{"advanced":{"equipment":["Sandspielfläche","Spielwiese","Bänke","Parkmöglichkeit:","öffentliche Parkplätze vorhanden"],"gaming_devices":["Kletterturm","Rutsche","Federwippe"]},"district":"Lausen-Grünau,West","lat":51.3101511,"lines":"1, 61, 66, 80E, 161","location":"Alte Salzstraße / Deiwitzweg","lon":12.2696594,"name":"Spielplatz 'Deiwitzweg - Sandplatz'","stops":"Haltestelle Krakauer Straße, Haltestelle Krakauer Straße","town":"Leipzig"},{"advanced":{"equipment":["Schattenplätze","Bänke","Parkmöglichkeit:","öffentliche Parkplätze vorhanden"],"gaming_devices":["Tischtennisplatte","Kletterpyramide"]},"district":"Neulindenau,Alt-West","lat":51.3297034,"lines":"8, 15, 80","location":"Demmeringstraße / Radiusstraße","lon":12.3130191,"name":"Spielplatz 'Demmeringstraße'","stops":"Haltestelle Radiusstraße, Haltestelle Radiusstraße","town":"Leipzig"},{"advanced":{"equipment":["Schattenplätze","Sandspielfläche","Bänke","Parkmöglichkeit:","öffentliche Parkplätze vorhanden"],"gaming_devices":["Kletter- und Rutschturm","Tischtennisplatte","Wippe","Karussell","Holzstemmgerät","Hängematte","Naturelemente","Minireck"]},"district":"Schleußig,Südwest","lat":51.3237829,"lines":"1, 2, 74","location":"Nonnenweg","lon":12.3472887,"name":"Spielplatz 'Die Nonne'","stops":"Haltestelle Stieglitzstraße, Haltestelle Stieglitzstraße","town":"Leipzig"},{"advanced":{"equipment":["Sandspielfläche","Schattenplätze","Bänke","Parkmöglichkeit:","öffentliche Parkplätze vorhanden"],"gaming_devices":["Tischtennisplatte","Rutschturm"]},"district":"Paunsdorf,Ost","lat":51.34757889999999,"lines":"7, 8, 79, 90","location":"Döllingstraße","lon":12.4511293,"name":"Spielplatz 'Döllingstraße'","stops":"Haltestelle Theodor-Heuss-Straße, Haltestelle Theodor-Heuss-Straße","town":"Leipzig"},{"advanced":{"equipment":["Sandspielfläche","Schattenplätze","Bänke","Parkmöglichkeit:","öffentliche Parkplätze vorhanden"],"gaming_devices":["Kletterhaus","Hängematte","Windmühle","Hangrutsche","Sandspieltische","Holzfiguren"]},"district":"Schönau,West","lat":51.3276597,"lines":"8, 15, 61, 65, 66, 80E, 161","location":"Lindennaundorfer Weg","lon":12.2847847,"name":"Spielplatz 'Don Quichotte'","stops":"Haltestelle Schönauer Ring, Haltestelle Schönauer Ring","town":"Leipzig"},{"advanced":{"equipment":["Spielwiese","Schattenplätze","Bänke","Grillplatz","Parkmöglichkeit:","öffentliche Parkplätze vorhanden"],"gaming_devices":["Streetballkorb","Torwand","Kletterturm","Rutschturm","Doppelschaukel","Wipptier","Mastpendel","Tischtennisplatte","Holztiere"]},"district":"Seehausen,Nord","lat":51.3110072,"lines":"86, 176","location":"Am Anger / An der Hauptstraße","lon":12.4653243,"name":"Spielplatz 'Dorfanger Hohenheida'","stops":"Haltestelle Am Anger","town":"Leipzig"},{"advanced":{"equipment":["Sandspielfläche","Schattenplätze","Bänke","Parkmöglichkeit:","öffentliche Parkplätze vorhanden"],"gaming_devices":["Schaukel","Kletternetz","Hängenetz","Wippe"]},"district":"Liebertwolkwitz,Südost","lat":51.2813186,"lines":"75","location":"Dorotheenring / Auguste-Schulze-Straße","lon":12.4607636,"name":"Spielplatz 'Dorotheenring'","stops":"Haltestelle Zur Alten Sandgrube","town":"Leipzig"},{"advanced":{"equipment":["Schattenplätze","Bänke","Parkmöglichkeit:","öffentliche Parkplätze vorhanden"],"gaming_devices":["Steinbären","Doppelschaukel"]},"district":"Eutritzsch,Nord","lat":51.36688849999999,"lines":"16, 12, 85, 90","location":"Geibelstraße / Coppistraße","lon":12.3758657,"name":"Spielplatz 'Drei Bären - Arthur-Bretschneider-Park'","stops":"Haltestelle Eutritzsch Zentrum, Haltestelle Virchow-/ Coppistraße, Haltestelle Virchow-/ Coppistraße, Haltestelle Kleiststraße","town":"Leipzig"},{"advanced":{"equipment":["Bänke","Parkmöglichkeit:","öffentliche Parkplätze vorhanden"],"gaming_devices":["Tischtennisplatten"]},"district":"Volkmarsdorf,Ost","lat":51.3396955,"lines":"7","location":"Nathalienstraße","lon":12.3730747,"name":"Spielplatz 'Dunkler Wald'","stops":"Haltestelle Wiebelstraße","town":"Leipzig"},{"advanced":{"equipment":["Spielwiese","Bank","Parkmöglichkeit:","öffentliche Parkplätze vorhanden"],"gaming_devices":["Kletterpodest mit Kletterwand","Kletterpodest mit Rutschstange"]},"district":"Liebertwolkwitz,Südost","lat":51.2761837,"lines":"75, 143","location":"Schäferweg","lon":12.4799232,"name":"Spielplatz 'Edengarten'","stops":"Haltestelle Eulengraben","town":"Leipzig"},{"advanced":{"equipment":["Spielwiese","Bänke","Sandspielfläche","Parkmöglichkeit:","öffentliche Parkplätze vorhanden"],"gaming_devices":["Kletter- und Rutschturm","Trampolin","Wippe","Schaukel"]},"district":"Holzhausen,Südost","lat":51.2986414,"lines":"2, 15, 75, 172","location":"Parkstraße","lon":12.4466051,"name":"Spielplatz 'Eisenschmidtplatz'","stops":"Haltestelle Meusdorf, Haltestelle Meusdorf","town":"Leipzig"},{"advanced":{"equipment":["Schattenplätze","Bänke","Parkmöglichkeit:","öffentliche Parkplätze vorhanden"],"gaming_devices":["Elefantenrutsche","Stehkarussell","Wippe"]},"district":"Eutritzsch,Nord","lat":51.3640476,"lines":"12, 16, 85, 90","location":"Gottschallstraße / Geibelstraße","lon":12.3808804,"name":"Spielplatz 'Elefantenplatz im Arthur-Bretschneider-Park'","stops":"Haltestelle Gottschallstraße, Haltestelle Eutritzsch Markt, Haltestelle Gottschallstraße, Haltestelle Kleiststraße","town":"Leipzig"},{"advanced":{"equipment":["Sandspielfläche","Spielwiese","Schattenplätze","Bänke","Parkmöglichkeit:","öffentliche Parkplätze vorhanden"],"gaming_devices":["Tischtennisplatte","Streetballplatz","Kletterturm","Rutsche","Matschtisch"]},"district":"Neustadt-Neuschönefeld,Ost","lat":51.3432898,"lines":"1, 3, 8, 72, 73","location":"Elsastraße","lon":12.3999158,"name":"Spielplatz 'Elsapark'","stops":"Haltestelle Hermann-Liebmann-Straße/Eisenbahnstraße, Haltestelle Elsastraße","town":"Leipzig"},{"advanced":{"equipment":["Spielwiese","Bänke","Parkmöglichkeit:","öffentliche Parkplätze vorhanden"],"gaming_devices":["Fußballtore","Streetballkorb"]},"district":"Liebertwolkwitz,Südost","lat":51.2770805,"lines":"75","location":"Emil-Kluge-Straße","lon":12.4715259,"name":"Spielplatz 'Emil-Kluge-Park'","stops":"Haltestelle Störmthaler Straße","town":"Leipzig"},{"advanced":{"equipment":["Spielwiese","Schattenplätze","Bänke","Parkmöglichkeit:","öffentliche Parkplätze vorhanden"],"gaming_devices":["Drehscheibe","Wipptier"]},"district":"Sellerhausen-Stünz,Ost","lat":51.3396955,"lines":"7, 8, 77","location":"Emmauskirchplatz","lon":12.3730747,"name":"Spielplatz 'Emmauskirchplatz'","stops":"Haltestelle Emmausstraße, Haltestelle Emmausstraße","town":"Leipzig"},{"advanced":{"equipment":["Sandspielfläche","Spielwiese","Bänke","Parkmöglichkeit:","öffentliche Parkplätze vorhanden"],"gaming_devices":["Rutsch- und Kletterturm","Tischtennisplatten"]},"district":"Sellerhausen-Stünz,Ost","lat":51.3427021,"lines":"7, 8, 77","location":"Emmausstraße","lon":12.4283958,"name":"Spielplatz 'Emmausstraße'","stops":"Haltestelle Emmausstraße, Haltestelle Emmausstraße","town":"Leipzig"},{"advanced":{"equipment":["Rodelhügel","Spielwiese","Parkmöglichkeit:","öffentliche Parkplätze vorhanden"],"gaming_devices":["Doppelschaukel"]},"district":"Engelsdorf,Ost","lat":51.33649399999999,"lines":"72, 172","location":"Arthur-Winkler-Straße","lon":12.4780517,"name":"Spielplatz 'Engelsdorfer Park - Am Rodelhügel'","stops":"Haltestelle Arthur-Winkler-Straße","town":"Leipzig"},{"advanced":{"equipment":["Spielwiese","Schattenplätze","Parkmöglichkeit:","öffentliche Parkplätze vorhanden"],"gaming_devices":["Fußballtore","Streetballkorb"]},"district":"Engelsdorf,Ost","lat":51.33649399999999,"lines":"72, 172","location":"Arthur-Winkler-Straße","lon":12.4780517,"name":"Spielplatz 'Engelsdorfer Park - Ballplatz'","stops":"Haltestelle Arthur-Winkler-Straße","town":"Leipzig"},{"advanced":{"equipment":["Schattenplätze","Spielwiese","Holzstämme","Parkmöglichkeit:","öffentliche Parkplätze vorhanden"],"gaming_devices":["Tischtennisplatten"]},"district":"Engelsdorf,Ost","lat":51.33649399999999,"lines":"72, 172","location":"Arthur-Winkler-Straße","lon":12.4780517,"name":"Spielplatz 'Engelsdorfer Park - Tischtennisplatz'","stops":"Haltestelle Arthur-Winkler-Straße","town":"Leipzig"},{"advanced":{"equipment":["Rodelhügel","Mulde","Spielwiese","Parkmöglichkeit:","öffentliche Parkplätze vorhanden"],"gaming_devices":["Kletterholzstämme"]},"district":"Wiederitzsch,Nord","lat":51.2702806,"lines":"4, 87","location":"Enzianweg","lon":12.359067,"name":"Spielplatz 'Enzianweg'","stops":"Haltestelle Landsberger Straße, Haltestelle Melissenweg","town":"Leipzig"},{"advanced":{"equipment":["Schattenplätze","Bänke","Spielwiese","Parkmöglichkeit:","öffentliche Parkplätze sind vorhanden"],"gaming_devices":["Wippe","Federelement","Klettergerüst","Hängematte","Stehkarussell"]},"district":"Südwest,Hartmannsdorf-Knautnaundorf","lat":51.2616226,"lines":"63","location":"Erikenstraße","lon":12.3063731,"name":"Spielplatz 'Erikenstraße'","stops":"Haltestelle Erikenstraße","town":"Leipzig"},{"advanced":{"equipment":["Spielwiese","Schattenplätze","Bänke","Parkmöglichkeit:","öffentliche Parkplätze vorhanden"],"gaming_devices":["Tischtennisplatte"]},"district":"Zentrum-Süd,Mitte","lat":51.3300698,"lines":"10, 11","location":"Floßplatz","lon":12.3713016,"name":"Spielplatz 'Floßplatz'","stops":"Haltestelle Hohe Straße","town":"Leipzig"},{"advanced":{"equipment":["Spielwiese","Schattenplätze","Bänke","Parkmöglichkeit:","öffentliche Parkplätze vorhanden"],"gaming_devices":["Rutsche","Karussell","Hangelstrecke","Balanciersteg"]},"district":"Stötteritz,Südost","lat":51.3396955,"lines":"4, 79","location":"westlich der Oststraße / im Forst","lon":12.3730747,"name":"Spielplatz 'Forstplatz im Stötteritzer Wäldchen'","stops":"Haltestelle Breslauer Straße, Haltestelle Oberdorfstraße","town":"Leipzig"},{"advanced":{"equipment":["Sandspielfläche","Spielwiese","Schattenplätze","Bänke","Parkmöglichkeit:","öffentliche Parkplätze vorhanden"],"gaming_devices":["Kletter- und Rutschturm","Tischtennisplatte"]},"district":"Gohlis-Mitte,Nord","lat":51.3645265,"lines":"12, S1, S3","location":"Dietzgenstraße / Benedixstraße","lon":12.3738766,"name":"Spielplatz 'Freiligrathplatz'","stops":"Haltestelle S-Bahnhof Gohlis, Haltestelle Gohlis","town":"Leipzig"},{"advanced":{"equipment":["Spielwiese","Bänke","Sandspielfläche","Parkmöglichkeit:","öffentliche Parkplätze vorhanden"],"gaming_devices":["Tischtennisplatte","Drehscheibe","Pendelmast"]},"district":"Probstheida,Südost","lat":51.3083876,"lines":"15, 79","location":"Prager Straße / Augustinerstraße","lon":12.4272528,"name":"Spielplatz 'Freundschaftspark'","stops":"Haltestelle Prager Straße/Russenstraße, Haltestelle Prager Straße/Russenstraße","town":"Leipzig"},{"advanced":{"equipment":["Rodelhügel","Spielwiese","Parkmöglichkeit:","öffentliche Parkplätze vorhanden"],"gaming_devices":["Tischtennisplatte","Drehscheibe","Pendelmast"]},"district":"Probstheida,Südost","lat":51.3083876,"lines":"15, 79","location":"Prager Straße / Augustinerstraße","lon":12.4272528,"name":"Spielplatz 'Freundschaftspark- Rodelhügel'","stops":"Haltestelle Prager Straße/Russenstraße, Haltestelle Prager Straße/Russenstraße","town":"Leipzig"},{"advanced":{"equipment":["Spielwiese","Bänke","Sandspielfläche","Rodelhügel","Parkmöglichkeit:","öffentliche Parkplätze vorhanden"],"gaming_devices":["Hinweis:","Bogenbrücke","Hängematte","Pyramidenturm","Pendelschwinger"]},"district":"Mockau-Nord,Nordost","lat":51.375784,"lines":"70, 80","location":"Friedrichshafner Straße","lon":12.4057054,"name":"Spielplatz 'Friedrichshafner Straße'","stops":"Haltestelle Schildberger Weg, Haltestelle Rosenowstraße","town":"Leipzig"},{"advanced":{"equipment":["Spielwiese","Schattenplätze","Bänke","Parkmöglichkeit:","Hinweis:","Die öffentlichen Parkplätze befinden sich außerhalb des Forstgebietes."],"gaming_devices":["Reifenkarussell","Klettersäule"]},"district":"Leutzsch,Alt-West","lat":51.3396955,"lines":"7","location":"Friesenstraße / nahe Sportplatz am Waldrand","lon":12.3730747,"name":"Spielplatz 'Friesenstraße'","stops":"Haltestelle Wielandstraße","town":"Leipzig"},{"advanced":{"equipment":["Spielwiese","Bänke","Schattenplätze","Parkmöglichkeit:","öffentliche Parkplätze vorhanden"],"gaming_devices":["Fußballtore","Torwand"]},"district":"Zentrum-Südost,Mitte","lat":51.3251476,"lines":"15, 2, 16, 60, 74","location":"Linnéstraße / Phillip-Rosenthal-Straße","lon":12.392638,"name":"Spielplatz 'Fußballfeld im Friedenspark'","stops":"Haltestelle Ostplatz, Haltestelle Deutsche Nationalbibliothek, Haltestelle Ostplatz, Haltestelle Deutsche Nationalbibliothek","town":"Leipzig"},{"advanced":{"equipment":["Findlinge","Spielwiese","Bänke","Parkmöglichkeit:","öffentliche Parkplätze vorhanden"],"gaming_devices":["Rutschturm","Drehscheibe"]},"district":"Böhlitz-Ehrenberg,Alt-West","lat":51.3548629,"lines":"7, 62","location":"Gartengrund / Luppenaue","lon":12.2827514,"name":"Spielplatz 'Gartengrund'","stops":"Haltestelle Ludwig-Jahn-Straße, Haltestelle Breitestraße","town":"Leipzig"},{"advanced":{"equipment":["Sandspielfläche","Schattenplätze","Bänke","Betonliege","Parkmöglichkeit:","öffentliche Parkplätze vorhanden"],"gaming_devices":["Tischtennisplatte","Klettersteine","Kletterwand"]},"district":"Altlindenau,Alt-West","lat":51.34045,"lines":"7","location":"Wielandstraße","lon":12.3222351,"name":"Spielplatz 'Gellertplatz'","stops":"Haltestelle Wielandstraße","town":"Leipzig"},{"advanced":{"equipment":["Spielwiese","Bänke","Parkmöglichkeit:","öffentliche P+R Parkplätze an der Georg-Herwegh-Straße vorhanden"],"gaming_devices":["Kletterpyramide"]},"district":"Wiederitzsch,Nord","lat":51.3978664,"lines":"16","location":"Georg-Herwegh-Straße","lon":12.3829931,"name":"Spielplatz 'Georg-Herwegh-Straße'","stops":"Haltestelle Georg-Herwegh-Straße","town":"Leipzig"},{"advanced":{"equipment":["Sandspielfläche","Schattenplätze","Bänke","Parkmöglichkeit:","öffentliche Parkplätze vorhanden"],"gaming_devices":["Kletter- und Rutschpodest"]},"district":"Altlindenau,Alt-West","lat":51.3399705,"lines":"7","location":"Spittastraße","lon":12.3243248,"name":"Spielplatz 'Georgplatz'","stops":"Haltestelle Wielandstraße","town":"Leipzig"},{"advanced":{"equipment":["Sandspielflächen","Spielwiese","Bänke","Schattenplätze","Parkmöglichkeit:","öffentliche Parkplätze vorhanden"],"gaming_devices":["Rutsch- und Kletterkombination 'Sonne, Mond und Sterne'","Doppelschaukel","Tischtennisplatte"]},"district":"Dölitz-Dösen,Süd","lat":51.2939568,"lines":"11","location":"Gersterstraße","lon":12.3888422,"name":"Spielplatz 'Gersterstraße'","stops":"Friederikenstraße","town":"Leipzig"},{"advanced":{"equipment":["Sandspielfläche","Bänke","Spielwiese","Schattenplätze","Parkmöglichkeit:","öffentliche Parkplätze vorhanden"],"gaming_devices":["Kletter- und Rutschgerüst","Nestschaukel","Kletternetz","Reck"]},"district":"Plagwitz,Südwest","lat":51.3203342,"lines":"1, 2, 60","location":"Gießerstraße / Antonienstraße","lon":12.323889,"name":"Spielplatz 'Gießerplatz'","stops":"Haltestelle Antonienstraße, Haltestelle Antonienstraße","town":"Leipzig"},{"advanced":{"equipment":["Sandspielfläche","Spielwiese","Bänke","Parkmöglichkeit:","öffentliche Parkplätze vorhanden"],"gaming_devices":["Kletter-und Rutschturm","Tischtennisplatte","Wippe"]},"district":"Böhlitz-Ehrenberg,Alt-West","lat":51.3396955,"lines":"62","location":"Goetheplatz / Obere Mühlenstraße","lon":12.3730747,"name":"Spielplatz 'Goetheplatz'","stops":"Haltestelle Goetheplatz","town":"Leipzig"},{"advanced":{"equipment":["Spielwiese","Schattenplätze","Bänke","Parkmöglichkeit:","öffentliche Parkplätze vorhanden"],"gaming_devices":["Kletterhaus","Doppelschaukel","Rutsche","Wipptier"]},"district":"Heiterblick,Ost","lat":51.3598675,"lines":"3, 7, 8","location":"Goldene Hufe","lon":12.4756406,"name":"Spielplatz 'Goldene Hufe - Kletterplatz'","stops":"Haltestelle Paunsdorf-Nord","town":"Leipzig"},{"advanced":{"equipment":["Spielwiese","Bänke","Parkmöglichkeit:","öffentliche Parkplätze vorhanden"],"gaming_devices":["Seilzugkombination aus Holz"]},"district":"Heiterblick,Ost","lat":51.3598675,"lines":"3, 7, 8","location":"Goldene Hufe","lon":12.4756406,"name":"Spielplatz 'Goldene Hufe - Seilplatz'","stops":"Haltestelle Paunsdorf-Nord","town":"Leipzig"},{"advanced":{"equipment":["Findlinge","Schattenplätze","Bänke","Parkmöglichkeit:","öffentliche Parkplätze vorhanden"],"gaming_devices":["Doppelschaukel","Rutsch- und Kletterturm"]},"district":"Zentrum-Süd,Mitte","lat":51.3314038,"lines":"89","location":"Grassistraße","lon":12.3676628,"name":"Spielplatz 'Grassistraße'","stops":"Haltestelle Mozartstraße","town":"Leipzig"},{"advanced":{"equipment":["Sandspielfläche","Spielwiese","Schattenplätze","Bänke","Parkmöglichkeit:","öffentliche Parkplätze vorhanden"],"gaming_devices":["Summstein","Findlinge"]},"district":"Stötteritz,Südost","lat":51.3146016,"lines":"2, 15","location":"Naunhofer Straße / Gletschersteinstraße","lon":12.4206284,"name":"Spielplatz 'Gregoryplatz'","stops":"Haltestelle Völkerschlachtdenkmal","town":"Leipzig"},{"advanced":{"equipment":["Schattenplätze","Spielwiese","Bänke","Versteckflächen","Parkmöglichkeit:","öffentliche Parkplätze vorhanden"],"gaming_devices":["Tischtennisplatten","Rutsche","Holzstämme","Findlinge"]},"district":"Altlindenau,Alt-West","lat":51.3411699,"lines":"7","location":"Großmannstraße","lon":12.3218227,"name":"Spielplatz 'Großmannplatz'","stops":"Haltestelle Wielandstraße","town":"Leipzig"},{"advanced":{"equipment":["Sandspielfläche","Bänke","Spielwiese","Schattenplätze","Parkmöglichkeit:","öffentliche Parkplätze vorhanden"],"gaming_devices":["Wasserpumpe","Holzhaus","Federplatten","Doppelschaukel","Kletterturm","Drehbagger"]},"district":"Grünau-Ost,West","lat":51.3259121,"lines":"8, 15","location":"Grünauer Allee ","lon":12.302236,"name":"Spielplatz 'Grünauer Allee'","stops":"Haltestelle Grünauer Allee","town":"Leipzig"},{"advanced":{"equipment":["Spielwiese","Bänke","Parkmöglichkeit:","öffentliche Parkplätze vorhanden"],"gaming_devices":["Rutschturm","Balancier- und Kletterhölzer","Doppelschaukel","Gurtsteg","Kletternetz"]},"district":"Paunsdorf,Ost","lat":51.3569328,"lines":"7, 8","location":"Höhe Hainbuchenstraße","lon":12.4567424,"name":"Spielplatz 'Grüner Bogen - Heiterer Blick'","stops":"Haltestelle Ahornstraße","town":"Leipzig"},{"advanced":{"equipment":["Feuerplatz","Spielwiese","Bänke","Parkmöglichkeit:","öffentliche Parkplätze vorhanden"],"gaming_devices":["Tischtennisplatte","Streetballkorb"]},"district":"Paunsdorf,Ost","lat":51.3569328,"lines":"7, 8","location":"Höhe Hainbuchenstraße","lon":12.4567424,"name":"Spielplatz 'Grüner Bogen - Jugendtreff'","stops":"Haltestelle Ahornstraße","town":"Leipzig"},{"advanced":{"equipment":["Holzpavillon","Sandspielfläche","Spielwiese","Schattenplätze","Bänke","Parkmöglichkeit:","öffentliche Parkplätze vorhanden"],"gaming_devices":["Tischtennisplatte"]},"district":"Wahren,Nordwest","lat":51.38098859999999,"lines":"87, 88","location":"Gustav-Schmoller-Straße","lon":12.3354946,"name":"Spielplatz 'Gustav-Schmoller-Straße'","stops":"Haltestelle Zeisigweg","town":"Leipzig"},{"advanced":{"equipment":["Findlinge","Spielwiese","Schattenplätze","Bänke","Parkmöglichkeit:","öffentliche Parkplätze vorhanden"],"gaming_devices":["Tischtennisplatte"]},"district":"Stötteritz,Südost","lat":51.315269,"lines":"2, 15","location":"Ludolf-Colditz-Straße / Naunhofer Straße","lon":12.4197746,"name":"Spielplatz 'Gustav-Schwabe-Platz'","stops":"Haltestelle Völkerschlachtdenkmal","town":"Leipzig"},{"advanced":{"equipment":["Schattenplätze","Bänke","Parkmöglichkeit:","öffentliche Parkplätze vorhanden"],"gaming_devices":["Tischtennisplatte"]},"district":"Großzschocher,Südwest","lat":51.3015205,"lines":"3","location":"Buttergasse","lon":12.3299312,"name":"Spielplatz 'Gutspark Großzschocher'","stops":"Haltestelle Kunzestraße","town":"Leipzig"},{"advanced":{"equipment":["Sandspielflächen","Spielwiese","Bänke","Parkmöglichkeit:","öffentliche Parkplätze vorhanden"],"gaming_devices":["Kletterrondell","Röhre"]},"district":"Seehausen,Nord","lat":51.4217214,"lines":"86","location":"Gutsweg ","lon":12.4235193,"name":"Spielplatz 'Gutsweg'","stops":"Haltestelle Göbschelwitz","town":"Leipzig"},{"advanced":{"equipment":["Sandspielfläche","Schattenplätze","Bänke","Parkmöglichkeit:","öffentliche Parkplätze vorhanden"],"gaming_devices":["Kletter- und Rutschturm","Schaukel","Tischtennisplatten"]},"district":"Anger-Crottendorf,Ost","lat":51.339509,"lines":"7","location":"Hanns-Eisler-Straße / Schacherstraße ","lon":12.4148121,"name":"Spielplatz 'Hanns-Eisler-Straße'","stops":"Haltestelle Wiebelstraße","town":"Leipzig"},{"advanced":{"equipment":["Spielwiese","Bänke","Parkmöglichkeit:","öffentliche Parkplätze vorhanden"],"gaming_devices":["Tischtennisplatten"]},"district":"Grünau-Mitte,West","lat":51.3210416,"lines":"8, 15, 61, 65, 66, 80E, 161","location":"Heidelberger Straße ","lon":12.2867301,"name":"Spielplatz 'Heidelberger Straße'","stops":"Haltestelle Schönauer Ring, Haltestelle Schönauer Ring","town":"Leipzig"},{"advanced":{"equipment":["Sandspielfläche","Schattenplätze","Bänke","Parkmöglichkeit:","öffentliche Parkplätze vorhanden"],"gaming_devices":["Tischtennisplatten","Klettergerüst","Rutsche","Schaukel","Flüsterkugel"]},"district":"Leutzsch,Alt-West","lat":51.3532988,"lines":"7","location":"Heimteichstraße / Gaußstraße","lon":12.3090402,"name":"Spielplatz 'Heimteichstraße'","stops":"Haltestelle Philipp-Reis-Straße","town":"Leipzig"},{"advanced":{"equipment":["Sandspielfläche","Spielwiese","Schattenplätze","Bänke","Parkmöglichkeit:","öffentliche Parkplätze vorhanden"],"gaming_devices":["Klettertürme","Rutschturm","Balancierstäbe","Hängematte"]},"district":"Gohlis-Mitte,Nord","lat":51.369546,"lines":"4, 12, 90","location":"Heinrich-Budde-Straße","lon":12.3710897,"name":"Spielplatz 'Heinrich-Budde-Platz'","stops":"Haltestelle Coppiplatz, Haltestelle Virchow-/Coppistraße, Haltestelle Coppiplatz","town":"Leipzig"},{"advanced":{"equipment":["Spielwiese","Schattenplätze","Bänke","Parkmöglichkeit:","öffentliche Parkplätze vorhanden"],"gaming_devices":["Stangensegel","Drehpilze","Kletterstangen","Tischtennisplatten","Streetballfeld"]},"district":"Südvorstadt,Süd","lat":51.3207657,"lines":"10, 11, 60, 74","location":"Hardenbergstraße/Karl-Liebknecht-Straße","lon":12.3736014,"name":"Spielplatz 'Heinrich-Schütz-Platz'","stops":"Haltestelle Karl-Liebknecht-Straße/Kurt-Eisner-Straße, Haltestelle Karl-Liebknecht-Straße/Kurt-Eisner-Straße","town":"Leipzig"},{"advanced":{"equipment":["Spielwiese","Parkmöglichkeit:","öffentliche Parkplätze vorhanden"],"gaming_devices":["Kletter- und Rutschturm","Streetballkorb","Schaukel"]},"district":"Altlindenau,Alt-West","lat":51.33914189999999,"lines":"7, 8, 15, 74, 130, 131","location":"Henricistraße","lon":12.3361348,"name":"Spielplatz 'Henricistraße'","stops":"Haltestelle Lindenauer Markt, Haltestelle Lindenauer Markt","town":"Leipzig"},{"advanced":{"equipment":["Spielwiese","Bänke","überdachter Sitzbereich","Parkmöglichkeit:","öffentliche Parkplätze vorhanden"],"gaming_devices":["Tischtennisplatte","Reifenschaukel","Rutsche","Kletterpodest","Stehkarussell","Balanciersteg","Streetballkorb","Skateranlage"]},"district":"Lindenau,Alt-West","lat":51.3335525,"lines":"8, 15","location":"Henriettenstraße / Endersstraße","lon":12.3282186,"name":"Spielplatz 'Henriettenpark'","stops":"Haltestelle Henriettenstraße","town":"Leipzig"},{"advanced":{"equipment":["Sandspielfläche","Spielwiese","Schattenplätze","Bänke","Parkmöglichkeit:","öffentliche Parkplätze vorhanden"],"gaming_devices":["Kletternetz","Rutschstangen","Kletterpyramide","Tischtennisplatten","Rollenrutsche","Pyramidenrutsche","Minirutschen"]},"district":"Connewitz,Süd","lat":51.3065474,"lines":"9, 107","location":"Herderstraße / Wolfgang-Heinze-Straße","lon":12.373636,"name":"Spielplatz 'Herderplatz'","stops":"Haltestelle Mathildenstraße, Haltestelle Mathildenstraße","town":"Leipzig"},{"advanced":{"equipment":["Sandspielfläche","Spielwiese","Schattenplätze","Bänke","Parkmöglichkeit:","Die öffentlichen Parkplätze befinden sich im nahegelegenen Wohnviertel."],"gaming_devices":["Kletterturm","Klettersteine","Naturelemente"]},"district":"Zentrum-Nordwest,Mitte","lat":51.34999999999999,"lines":"12","location":"Herrenallee im Rosental","lon":12.3666667,"name":"Spielplatz 'Herrenallee'","stops":"Haltestelle Fritz-Seger-Straße","town":"Leipzig"},{"advanced":{"equipment":["Spielwiese","Findlinge","Schattenplätze","Bänke","Parkmöglichkeit:","öffentliche Parkplätze vorhanden"],"gaming_devices":["Tischtennisplatten","Drehscheibe","Doppelschaukel","Rutschturm","Balltrichter","Kletterbogen","Karussell","Schaukel","Holzsalamander","Weitspungplatz","Bolzplatz"]},"district":"Connewitz,Süd","lat":51.2955397,"lines":"11","location":"Hildbrandstraße / Bornaische Straße","lon":12.3861156,"name":"Spielplatz 'Hildebrandplatz'","stops":"Haltestelle Hildbrandstraße","town":"Leipzig"},{"advanced":{"equipment":["Spielwiese","Schattenplätze","Bänke","Parkmöglichkeit:","öffentliche Parkplätze vorhanden"],"gaming_devices":["Streetballplatz","2 Tischtennisplatten","Klettergerüst","Brettspieltische"]},"district":"Marienbrunn,Süd","lat":51.3077707,"lines":"10, 16","location":"Hirtenweg","lon":12.3939787,"name":"Spielplatz 'Hirtenweg'","stops":"Haltestelle Triftweg","town":"Leipzig"},{"advanced":{"equipment":["Bänke","Schattenplätze","Parkmöglichkeit:","öffentliche Parkplätze vorhanden"],"gaming_devices":["Doppelschaukel","Kletterwand","Kletternetz"]},"district":"Eutritzsch,Nord","lat":51.3616211,"lines":"16, 90","location":"Hohmannstraße / Theresienstraße","lon":12.3898146,"name":"Spielplatz 'Hohmannplatz'","stops":"Haltestelle Wilhelminenstraße, Haltestelle Theresienstraße","town":"Leipzig"},{"advanced":{"equipment":["Sandspielfläche","Spielwiese","Schattenplätze","Bänke","Parkmöglichkeit:","öffentliche Parkplätze vorhanden"],"gaming_devices":["Tischtennisplatte","Reifenschaukel"]},"district":"Thekla,Nordost","lat":51.38057569999999,"lines":"81, 82","location":"Hotherstraße / Donarstraße","lon":12.4480942,"name":"Spielplatz 'Hotherplatz - Erlasiedlung'","stops":"Haltestelle Wodanstraße","town":"Leipzig"},{"advanced":{"equipment":["Schattenplätze","Bänke","Parkmöglichkeit:","öffentliche Parkplätze vorhanden"],"gaming_devices":["Federkugel","Drehkegel"]},"district":"Großzschocher,Südwest","lat":51.3396955,"lines":"3","location":"Huttenstraße / Pfeilstaße","lon":12.3730747,"name":"Spielplatz 'Huttenplatz'","stops":"Haltestelle Gerhard-Ellrodt-Straße","town":"Leipzig"},{"advanced":{"equipment":["Bänke","Spielwiese","Sandspielfläche","Schattenplätze","Parkmöglichkeit:","öffentliche Parkplätze vorhanden"],"gaming_devices":["Wippe","Rutsche","Spieltische","Balanciersteg"]},"district":"Zentrum-West,Mitte","lat":51.3338094,"lines":"1, 2, 14","location":"Ferdinand-Lassalle-Straße","lon":12.3580792,"name":"Spielplatz 'Johannapark'","stops":"Haltestelle Marschnerstraße","town":"Leipzig"},{"advanced":{"equipment":["Sandspielfläche","Spielwiese","Schattenplätze","Bänke","Parkmöglichkeit:","öffentliche Parkplätze vorhanden"],"gaming_devices":["Wippe","Tischtennisplatte","Federsitz","Klettergerüst"]},"district":"Böhlitz-Ehrenberg,Alt-West","lat":51.3700369,"lines":"4, 62","location":"Pestalozzistraße / Leipziger Straße","lon":12.4686254,"name":"Spielplatz 'Johannes-Weyrauch-Platz'","stops":"Haltestelle Barneckerstraße, Haltestelle Südstraße","town":"Leipzig"},{"advanced":{"equipment":["Schattenplätze","Bänke","Parkmöglichkeit:","öffentliche Parkplätze vorhanden"],"gaming_devices":["Geräteplatz - 'Trimm - Dich'","Drehscheibe","Schaukel"]},"district":"Sellerhausen-Stünz,Ost","lat":51.3448713,"lines":"77","location":"Püchauer Straße","lon":12.42705,"name":"Spielplatz 'Jugendclub - Rückseite'","stops":"Haltestelle Püchauer Straße","town":"Leipzig"},{"advanced":{"equipment":["Bänke","Parkmöglichkeit:","öffentliche Parkplätze vorhanden"],"gaming_devices":["Kletterwand","Tischtennisplatte","Streetballplatz"]},"district":"Sellerhausen-Stünz,Ost","lat":51.3448713,"lines":"77","location":"Püchauer Straße ","lon":12.42705,"name":"Spielplatz 'Jugendclub - Vorderseite'","stops":"Haltestelle Püchauer Straße","town":"Leipzig"},{"advanced":{"equipment":["Bänke","Pavillon","Schattenplätze","Parkmöglichkeit:","öffentliche Parkplätze vorhanden"],"gaming_devices":["Fußballtore","Tischtennisplatten","Streetballkorb"]},"district":"Schönau,West","lat":51.3261902,"lines":"8, 15, 61, 65, 66, 80E, 161","location":"Stuttgarter Allee / Dölziger Weg","lon":12.2845198,"name":"Spielplatz 'Jugendkuhle'","stops":"Haltestelle Schönauer Ring, HaltestelleSchönauer Ring","town":"Leipzig"},{"advanced":{"equipment":["Sandspielfläche","Spielwiese","Schattenplätze","Bänke","Parkmöglichkeit:","öffentliche Parkplätze vorhanden"],"gaming_devices":["Klettergerüst"]},"district":"Zentrum-Südost,Mitte","lat":51.330956,"lines":"2, 9, 16","location":"Talstraße / Liebigstraße","lon":12.3910025,"name":"Spielplatz 'Kanonenteich'","stops":"Haltestelle Bayrischer Platz","town":"Leipzig"},{"advanced":{"equipment":["Sandspielfläche","Rodelhügel","Spielwiese","Schattenplätze","Bänke","Parkmöglichkeit:","öffentliche Parkplätze vorhanden"],"gaming_devices":["2 Tischtennisplatten","Streetballkorb","Fussballtor","Kletterhaus mit Kletterwand","Kletterhaus mit Rutsche","Sandtisch","Stufenreck"]},"district":"Lindenau,Alt-West","lat":51.33448569999999,"lines":"3, 14, 74","location":"Aurelienstraße / Siemeringstraße","lon":12.3354265,"name":"Spielplatz 'Karl-Heine-Platz'","stops":"Haltestelle Felsenkeller, Haltestelle Felsenkeller","town":"Leipzig"},{"advanced":{"equipment":["Spielwiese","Bänke","Findlinge","Parkmöglichkeit:","öffentliche Parkplätze vorhanden"],"gaming_devices":["Tischtennisplatte"]},"district":"Möckern,Nordwest","lat":51.3683628,"lines":"10, 11","location":"Georg-Schuhmann-Straße / Dantestraße","lon":12.346112,"name":"Spielplatz 'Kirchplatz Möckern'","stops":"Haltestelle Dantestraße","town":"Leipzig"},{"advanced":{"equipment":["Schattenplätze","Bänke","Sandspielfläche","Parkmöglichkeit:","öffentliche Parkplätze vorhanden"],"gaming_devices":["Tischtennisplatten","Wipproller","Kletterbahn"]},"district":"Neustadt-Neuschönefeld,Ost","lat":51.3418614,"lines":"4, 7","location":"Klasingstraße/Reclamstraße","lon":12.4001048,"name":"Spielplatz 'Klasingstraße'","stops":"Haltestelle Gerichtsweg","town":"Leipzig"},{"advanced":{"equipment":["Schattenplätze","Bänke","Parkmöglichkeit:","öffentliche Parkplätze vorhanden"],"gaming_devices":["Holzwippe","Schaukel","Kletterstrecke"]},"district":"Engelsdorf,Ost","lat":51.3368121,"lines":"172","location":"Kleine Promenade / Bernsteinstraße","lon":12.4824548,"name":"Spielplatz 'Kleine Promenade'","stops":"Haltestelle Opalstraße","town":"Leipzig"},{"advanced":{"equipment":["Spielwiese","Bänke","Parkmöglichkeit:","öffentliche Parkplätze vorhanden"],"gaming_devices":["Kletterturm","Rutschturm","Kletterpodest","Wipptiere","Schaukel","Wippe"]},"district":"Zentrum-Südost,Mitte","lat":51.3251476,"lines":"15, 2, 16, 60, 74","location":"Linnéstraße / Phillip-Rosenthal-Straße","lon":12.392638,"name":"Spielplatz 'Kletterplatz im Friedenspark'","stops":"Haltestelle Ostplatz, Haltestelle Deutsche Nationalbibliothek, Haltestelle Ostplatz, Haltestelle Deutsche Nationalbibliothek","town":"Leipzig"},{"advanced":{"equipment":["Schattenplätze","Bänke","Spielwiese","Parkmöglichkeit:","öffentliche Parkplätze sind vorhanden"],"gaming_devices":["Balancierstrecke","Wippe","Tischtennisplatte","Hängematte","Holztier"]},"district":"Südwest,Hartmannsdorf-Knautnaundorf","lat":51.2525577,"lines":"120","location":"Knautnaundorfer Anger","lon":12.2729386,"name":"Spielplatz 'Knautnaundorfer Anger'","stops":"Haltestelle Werkstraße","town":"Leipzig"},{"advanced":{"equipment":["Sandspielfläche","Spielwiese","Schattenplätze","Bänke","Parkmöglichkeit:","öffentliche Parkplätze vorhanden"],"gaming_devices":["Kletterpyramide","Kletterturm"]},"district":"Zentrum-Süd,Mitte","lat":51.3258027,"lines":"10, 11","location":"Körnerplatz","lon":12.3750569,"name":"Spielplatz 'Körnerplatz'","stops":"Haltestelle Südplatz","town":"Leipzig"},{"advanced":{"equipment":["Bänke","Spielwiese","Parkmöglichkeit:","öffentliche Parkplätze vorhanden"],"gaming_devices":["Fußballfeld","Streetballplatz","Volleyball"]},"district":"West,Grünau-Siedlung","lat":51.3113198,"lines":"1, 61, 66, 80E, 161","location":"Krakauer Straße","lon":12.2708462,"name":"Spielplatz 'Krakauer Straße'","stops":"Haltestelle Krakauer Straße, Haltestelle Krakauer Straße","town":"Leipzig"},{"advanced":{"equipment":["Spielwiese","Bänke","Schattenplätze","Parkmöglichkeit:","öffentliche Parkplätze vorhanden"],"gaming_devices":["Tischtennisplatte","Volleyballfeld","Fußballfeld"]},"district":"Anger-Crottendorf,Ost","lat":51.3397809,"lines":"7","location":"Krönerstraße","lon":12.4152221,"name":"Spielplatz 'Krönerstraße","stops":"Haltestelle Wiebelstraße","town":"Leipzig"},{"advanced":{"equipment":["Spielwiese","Parkmöglichkeit:","öffentliche Parkplätze vorhanden"],"gaming_devices":["Tischtennisplatte"]},"district":"Eutritzsch,Nord","lat":51.3850188,"lines":"16","location":"Krostitzer Weg","lon":12.3842565,"name":"Spielplatz 'Krostitzer Weg'","stops":"Klinikum St. Georg","town":"Leipzig"},{"advanced":{"equipment":["Labyrinth","Spielwiese","Bänke","Parkmöglichkeit:","öffentliche Parkplätze vorhanden"],"gaming_devices":["Kletterstein","Balancierseile","Spielturm","Trampolin","Spielhäuser"]},"district":"Zentrum,Mitte","lat":51.34140379999999,"lines":"1, 7, 4, 12, 15, 3, 10, 16, 11, 14, 9, 89","location":"Reichsstraße","lon":12.3766734,"name":"Spielplatz 'Labyrinth'","stops":"Haltestelle Hauptbahnhof, Haltestelle Reichsstraße","town":"Leipzig"},{"advanced":{"equipment":["Sandspielfläche","Spielwiese","Bänke","Parkmöglichkeit:","öffentliche Parkplätze vorhanden"],"gaming_devices":["Doppelschaukel","Tischtennisplatte","Wippe","Kletterturm","Hängematte","Kletterröhre","Rutschturm","Streetballplatz"]},"district":"Wiederitzsch,Nord","lat":51.38823490000001,"lines":"16, 87","location":"Akazienweg","lon":12.3738243,"name":"Spielplatz 'Landschaftspark Wiederitzsch - Kletterplatz'","stops":"Haltestelle Dachauer Straße, Haltestelle Dachauer Straße","town":"Leipzig"},{"advanced":{"equipment":["Sandspielfläche","Spielwiese","Bänke","Parkmöglichkeit:","öffentliche Parkplätze vorhanden"],"gaming_devices":["Wipptier","Holzhaus","Sandspieltisch"]},"district":"Wiederitzsch,Nord","lat":51.3879311,"lines":"16, 87","location":"Höhe Ebereschenweg","lon":12.3728132,"name":"Spielplatz 'Landschaftspark Wiederitzsch - Sandspielplatz'","stops":"Haltestelle Dachauer Straße, Haltestelle Dachauer Straße","town":"Leipzig"},{"advanced":{"equipment":["Bänke","Parkmöglichkeit:","öffentliche Parkplätze vorhanden"],"gaming_devices":["Hangrutschen","Kletterseil"]},"district":"Reudnitz-Thonberg,Südost","lat":51.3326297,"lines":"15, 60","location":"Eilenburger Straße / Rubensstraße","lon":12.4021056,"name":"Spielplatz 'Lene-Voigt-Park - Rutschplatz'","stops":"Haltestelle Ostplatz, Haltestelle Ostplatz","town":"Leipzig"},{"advanced":{"equipment":["Schattenplätze","Bänke","Parkmöglichkeit:","öffentliche Parkplätze vorhanden"],"gaming_devices":["Tischtennisplatten"]},"district":"Reudnitz-Thonberg,Südost","lat":51.3344973,"lines":"15, 60","location":"Eilenburger Straße / Reichpietschstraße","lon":12.4008506,"name":"Spielplatz 'Lene-Voigt-Park - Tischtennisplatz'","stops":"Haltestelle Ostplatz, Haltestelle Ostplatz","town":"Leipzig"},{"advanced":{"equipment":["Sandspielfläche","Bänke","Parkmöglichkeit:","öffentliche Parkplätze vorhanden"],"gaming_devices":["Wasserpumpe","Holzstrecke mit Wasserlauf"]},"district":"Reudnitz-Thonberg,Südost","lat":51.3326297,"lines":"15, 60","location":"Eilenburger Straße / Rubensstraße","lon":12.4021056,"name":"Spielplatz 'Lene-Voigt-Park - Wasserspiel'","stops":"Haltestelle Ostplatz, Haltestelle Ostplatz","town":"Leipzig"},{"advanced":{"equipment":["Bänke","Fussballfeld","Streetballfeld","Parkmöglichkeit:","öffentliche Parkplätze vorhanden"],"gaming_devices":["Fussballore","Streetballkörbe"]},"district":"Reudnitz-Thonberg,Südost","lat":51.3304558,"lines":"15, 60","location":"Eilenburger Straße / Johannisallee","lon":12.3924853,"name":"Spielplatz 'Lene-Voigt-Park - Ballplatz'","stops":"Haltestelle Ostplatz, Haltestelle Ostplatz","town":"Leipzig"},{"advanced":{"equipment":["Spielwiese","Parkmöglichkeit:","öffentliche Parkplätze vorhanden"],"gaming_devices":["Volleyballfelder","Kletterwand"]},"district":"Reudnitz-Thonberg,Südost","lat":51.3318532,"lines":"15, 60","location":"Eilenburger Straße / Albert-Schweitzer-Straße","lon":12.4041257,"name":"Spielplatz 'Lene-Voigt-Park - Beachvolleyballplatz'","stops":"Haltestelle Ostplatz, Haltestelle Ostplatz","town":"Leipzig"},{"advanced":{"equipment":["Spielwiese","Bänke","Parkmöglichkeit:","öffentliche Parkplätze vorhanden"],"gaming_devices":["Klettergerüst mit Ringen","Schaukel"]},"district":"Reudnitz-Thonberg,Südost","lat":51.3326297,"lines":"15, 60","location":"Eilenburger Straße / Rubensstraße","lon":12.4021056,"name":"Spielplatz 'Lene-Voigt-Park - Kletterplatz'","stops":"Haltestelle Ostplatz, Haltestelle Ostplatz","town":"Leipzig"},{"advanced":{"equipment":["Spielwiese","Schattenplätze","Bänke","Parkmöglichkeit:","öffentliche Parkplätze vorhanden"],"gaming_devices":["Holzschloss","Holzfigur 'Prinzessin'","Kletterpyramide","Rutschbogen","Karussell"]},"district":"Reudnitz-Thonberg,Südost","lat":51.3322535,"lines":"15, 60","location":"Eilenburger Straße / Josephinenstraße","lon":12.3987409,"name":"Spielplatz 'Lene-Voigt-Park - Märchenplatz'","stops":"Haltestelle Ostplatz, Haltestelle Ostplatz","town":"Leipzig"},{"advanced":{"equipment":["Bänke","Schattenplätze","Parkmöglichkeit:","öffentliche Parkplätze vorhanden"],"gaming_devices":["Doppelschaukel","Sitzkarussell","Kletterelement 'Spagettini'"]},"district":"Böhlitz-Ehrenberg,Alt-West","lat":51.3546388,"lines":"7, 62","location":"Heinrich-Heine-Straße / Südstraße","lon":12.2922364,"name":"Spielplatz 'Lessingplatz'","stops":"Haltestelle Südstraße, Haltestelle Südstraße","town":"Leipzig"},{"advanced":{"equipment":["Bänke","Parkmöglichkeit:","öffentliche Parkplätze vorhanden"],"gaming_devices":["Rutsch- und Kletterhaus","Wippe","Wipptier"]},"district":"Lindenthal,Nordwest","lat":51.3893675,"lines":"90","location":"Lewienstraße / Rosestraße","lon":12.3206204,"name":"Spielplatz 'Lewienstraße'","stops":"Haltestelle Rudolf-Breitschneider-Straße","town":"Leipzig"},{"advanced":{"equipment":["Spielwiese","Sandspielfläche","Schattenplätze","Bänke","Parkmöglichkeit:","öffentliche Parkplätze vorhanden"],"gaming_devices":["Kletter- und Rutschturm","Hängenetz","Matschtisch","Kletterseil","Tischtennisplatte"]},"district":"Anger-Crottendorf,Ost","lat":51.3358892,"lines":"4, 72, 73","location":"Zweinaundorfer Straße / Theodor-Neubauer-Straße","lon":12.4233854,"name":"Spielplatz 'Liselotte-Herrmann-Park'","stops":"Haltestelle Breite Straße, Haltestelle Martinstraße","town":"Leipzig"},{"advanced":{"equipment":["Schattenplätze","Bänke","Spielwiese","Parkmöglichkeit:","öffentliche Parkplätze vorhanden"],"gaming_devices":["Tischtennisplatte"]},"district":"Volkmarsdorf,Ost","lat":51.3390792,"lines":"7","location":"Liselotte-Herrmann-Straße","lon":12.4184084,"name":"Spielplatz 'Liselotte-Herrmann-Straße'","stops":"Haltestelle Edlichstraße","town":"Leipzig"},{"advanced":{"equipment":["Sandspielfläche","Spielwiese","Schattenplätze","Bänke","Parkmöglichkeit:","öffentliche Parkplätze vorhanden"],"gaming_devices":["Holzdrachen","Holzkarussell","Elefantenrutsche","Holzungeheuer","Findlinge"]},"district":"Zentrum-Nordwest,Mitte","lat":51.3396955,"lines":"12","location":"Zöllnerweg / Leibnitzweg","lon":12.3730747,"name":"Spielplatz 'Louise-Otto-Peters-Platz'","stops":"Haltestelle Am Zoo","town":"Leipzig"},{"advanced":{"equipment":["Schattenplätze","Spielwiese","Bänke","Sandspielfläche","Parkmöglichkeit:","öffentliche Parkplätze vorhanden"],"gaming_devices":["Rutschturm","Balancierbalken","Kletterturm"]},"district":"Gohlis-Mitte,Nord","lat":51.3677177,"lines":"4, S10","location":"Ludwig-Beck-Straße","lon":12.3629807,"name":"Spielplatz 'Ludwig-Beck-Straße'","stops":"Haltestelle Coppiplatz, Haltestelle Coppiplatz","town":"Leipzig"},{"advanced":{"equipment":["Bänke","Parkmöglichkeit:","öffentliche Parkplätze vorhanden"],"gaming_devices":["Kletterdrachen","Rutsche"]},"district":"Engelsdorf,Ost","lat":51.3409766,"lines":"172","location":"Malachitstraße","lon":12.4784085,"name":"Spielplatz 'Malachitstraße'","stops":"Haltestelle Opalstraße","town":"Leipzig"},{"advanced":{"equipment":["Sandspielfläche","Spielwiese","Rodelhügel","Schattenplätze","Bänke","Parkmöglichkeit:","öffentliche Parkplätze vorhanden"],"gaming_devices":["Kletter- und Rutschturm","Schaukel","Stufenreck","Wippe","Hängematte"]},"district":"Schönefeld-Abtnaundorf,Nordost","lat":51.3516795,"lines":"1, 90","location":"Schönefelder Allee / Rohrteichstraße","lon":12.4025717,"name":"Spielplatz 'Mariannenpark - Holzspielplatz'","stops":"Haltestelle Stannebeinplatz, Haltestelle Mariannenpark","town":"Leipzig"},{"advanced":{"equipment":["Schattenplätze","Bänke","Parkmöglichkeit:","öffentliche Parkplätze vorhanden"],"gaming_devices":["Klettergerüst","Tischtennisplatten"]},"district":"Schönefeld-Abtnaundorf,Nordost","lat":51.3516795,"lines":"1, 90","location":"Rohrteichstraße ","lon":12.4025717,"name":"Spielplatz 'Mariannenpark - Jugendplatz'","stops":"Haltestelle Stannebeinplatz, Haltestelle Mariannenpark","town":"Leipzig"},{"advanced":{"equipment":["Sandspielfläche","Spielwiese","Schattenplätze","Bänke","Parkmöglichkeit:","öffentliche Parkplätze vorhanden"],"gaming_devices":["Klettersteine"]},"district":"Stötteritz,Südost","lat":51.3215298,"lines":"4, 74, 79","location":"Sommerfelder Straße / Lochmannstraße ","lon":12.4236741,"name":"Spielplatz 'Marienkirchplatz'","stops":"Haltestelle Kolmstraße, Haltestelle Kolmstraße","town":"Leipzig"},{"advanced":{"equipment":["Spielwiese","Schattenplätze","Bänke","Parkmöglichkeit:","öffentliche Parkplätze sind um das Rosental vorhanden"],"gaming_devices":["Rutsch- und Kletterturm","Naturelemente"]},"district":"Zentrum-Nordwest,Mitte","lat":51.34999999999999,"lines":"4","location":"Marienweg / Hinterer Rosentalteich im Rosental","lon":12.3666667,"name":"Spielplatz 'Marienweg'","stops":"Haltestelle Stallbaumstraße","town":"Leipzig"},{"advanced":{"equipment":["Rodelhügel","Spielwiese","Schattenplätze","Bänke","Parkmöglichkeit:","öffentliche Parkplätze vorhanden"],"gaming_devices":["Kletterholzgerüst","Findlinge","Balancierstrecke"]},"district":"Kleinzschocher,Südwest","lat":51.2940015,"lines":"3","location":"Dieskaustraße","lon":12.3209043,"name":"Spielplatz 'Martinsplatz'","stops":"Haltestelle Kötzschauer Straße","town":"Leipzig"},{"advanced":{"equipment":["Sandspielfläche","Spielwiese","Schattenplätze","Bänke","Parkmöglichkeit:","öffentliche Parkplätze vorhanden"],"gaming_devices":["Steinrutsche 'Elefant'","Steinrutsche 'Schwan'","Steintier 'Pony'"]},"district":"Zentrum-Süd,Mitte","lat":51.329275,"lines":"89","location":"Max-Reger-Allee","lon":12.3554422,"name":"Spielplatz 'Max-Reger-Allee'","stops":"Haltestelle Telemannstraße","town":"Leipzig"},{"advanced":{"equipment":["Bänke","Sandspielfläche","Parkmöglichkeit:","öffentliche Parkplätze vorhanden"],"gaming_devices":["Steinrutsche 'Elefant'","Steinrutsche 'Schwan'","Steintier 'Pony'"]},"district":"Engelsdorf,Ost","lat":51.3380316,"lines":"172","location":"Max-Reger-Straße","lon":12.4838449,"name":"Spielplatz 'Max-Reger-Straße'","stops":"Haltestelle Opalstraße","town":"Leipzig"},{"advanced":{"equipment":["Sandspielfläche","Spielwiese","Bänke","Parkmöglichkeit:","öffentliche Parkplätze vorhanden"],"gaming_devices":["Holzklettergerüst","Rutsche","Reifenpendel","Reck"]},"district":"Thekla,Nordost","lat":51.37155970000001,"lines":"9, 70, 80","location":"Kiebitzstraße / am Naturbad Nordost","lon":12.4261777,"name":"Spielplatz 'Naturbad Nordost - Holzspielplatz'","stops":"Haltestelle Thekla, Haltestelle Thekla","town":"Leipzig"},{"advanced":{"equipment":["Spielwiese","Parkmöglichkeit:","öffentliche Parkplätze vorhanden"],"gaming_devices":["Volleyballfeld"]},"district":"Thekla,Nordost","lat":51.36947670000001,"lines":"70, 79","location":"Theklaer Straße","lon":12.4254271,"name":"Spielplatz 'Naturbad Nordost - Volleyballplatz'","stops":"Haltestelle Sosaer Straße, Haltestelle Lidicestraße","town":"Leipzig"},{"advanced":{"equipment":["Spielwiese","Bänke","Parkmöglichkeit:","öffentliche Parkplätze vorhanden"],"gaming_devices":["Kletterflugzeuge","Reck"]},"district":"Großzschocher,Südwest","lat":51.3396955,"lines":"3","location":"Dieskaustraße (Westseite vom Naturbad)","lon":12.3730747,"name":"Spielplatz 'Naturbad Südwest'","stops":"Haltestelle Wasserwerk Windorf","town":"Leipzig"},{"advanced":{"equipment":["Sandspielfläche","Spielwiese","Schattenplätze","Bänke","Parkmöglichkeit:","öffentliche Parkplätze vorhanden"],"gaming_devices":["Kletterturm","Rutsche","Wipptier","Doppelschaukel"]},"district":"Grünau-Nord,West","lat":51.3196375,"lines":"15, 62, 65, 66","location":"Neue Leipziger Straße","lon":12.2645909,"name":"Spielplatz 'Neue Leipziger Straße'","stops":"Haltestelle Plovdiver Straße, Haltestelle Plovdiver Straße","town":"Leipzig"},{"advanced":{"equipment":["Wasserzugang","Sandspielfläche","Sitzsteine","Parkmöglichkeit:","öffentliche Parkplätze vorhanden"],"gaming_devices":["Schiff mit Rutsch- und Kletterturm","Wasserpumpe","Kletternetz","Findlinge"]},"district":"Zentrum-Süd,Mitte","lat":51.3269667,"lines":"10, 11","location":"Wundstraße Kreuzung Dufourstraße","lon":12.3704802,"name":"Spielplatz 'Neue Ufer'","stops":"Haltestelle Hohe Straße","town":"Leipzig"},{"advanced":{"equipment":["Sandspielfläche","Schattenplätze","Bänke","Parkmöglichkeit:","öffentliche Parkplätze vorhanden"],"gaming_devices":["Kletterhaus","Rutsche","Kletternetz"]},"district":"Neustadt-Neuschönefeld,Ost","lat":51.3476367,"lines":"1, 3, 8","location":"Neustädter Markt","lon":12.4038307,"name":"Spielplatz 'Neustädter Markt - Ostseite'","stops":"Haltestelle Hermann-Liebmann-Straße/Eisenbahnstraße","town":"Leipzig"},{"advanced":{"equipment":["Schattenplätze","Bänke","Parkmöglichkeit:","öffentliche Parkplätze vorhanden"],"gaming_devices":["Kletterpilze"]},"district":"Neustadt-Neuschönefeld,Ost","lat":51.3476367,"lines":"1, 3, 8, 70","location":"Neustädter Markt ","lon":12.4038307,"name":"Spielplatz 'Neustädter Markt'","stops":"Haltestelle Hermann-Liebmann-Straße/Eisenbahnstraße, Haltestelle Hermann-Liebmann-Straße/Eisenbahnstraße","town":"Leipzig"},{"advanced":{"equipment":["Spielwiese","Sandspielfläche","Bänke","Rodelhügel","Parkmöglichkeit:","öffentliche Parkplätze vorhanden"],"gaming_devices":["Gurtsteg","Rutschturm","Drehscheibe","Tischtennisplatte","Balancierseil","Streetballkorb"]},"district":"Schleußig,Südwest","lat":51.319761,"lines":"1, 2, 60, 74","location":"Oeserstraße","lon":12.343408,"name":"Spielplatz 'Oeserstraße'","stops":"Haltestelle Rödelstraße, Haltestelle Rödelstraße","town":"Leipzig"},{"advanced":{"equipment":["Bänke","Spielwiese","Parkmöglichkeit:","öffentliche Parkplätze vorhanden"],"gaming_devices":["Tischtennisplatte","Drehscheibe"]},"district":"Grünau-Mitte,West","lat":51.3209385,"lines":"8, 15, 61, 65, 66, 80E, 161","location":"Offenburger Straße","lon":12.2884848,"name":"Spielplatz 'Offenburger Straße'","stops":"Haltestelle Schönauer Ring, Haltestelle Schönauer Ring","town":"Leipzig"},{"advanced":{"equipment":["Spielwiese","Bänke","Parkmöglichkeit:","öffentliche Parkplätze vorhanden"],"gaming_devices":["Holzpodest"]},"district":"Engelsdorf,Ost","lat":51.3405539,"lines":"172","location":"Opalstraße / Gaswerksweg","lon":12.485301,"name":"Spielplatz 'Opalstraße'","stops":"Haltestelle Opalstraße","town":"Leipzig"},{"advanced":{"equipment":["Schattenplätze","Bänke","Parkmöglichkeit:","öffentliche Parkplätze vorhanden"],"gaming_devices":["Streetballkorb","Drehteller","Tischtennisplatte"]},"district":"Reudnitz-Thonberg,Südost","lat":51.32834080000001,"lines":"4, 70","location":"Oswaldstraße / Witzgallstraße","lon":12.4037937,"name":"Spielplatz 'Oswaldplatz'","stops":"Haltestelle Riebeckstraße/Stötteritzer Straße, Haltestelle Riebeckstraße/Stötteritzer Straße","town":"Leipzig"},{"advanced":{"equipment":["Sandspielfläche","Spielwiese","Schattenplätze","Bänke","Parkmöglichkeit:","öffentliche Parkplätze vorhanden"],"gaming_devices":["Kletterkugel","Rutschelefant","Kletterelemente"]},"district":"Lindenau,Alt-West","lat":51.3360348,"lines":"3, 7, 8, 15, 74, 130, 131","location":"im Palmengarten","lon":12.3448213,"name":"Spielplatz 'Palmengarten'","stops":"Haltestelle Angerbrücke, Haltestelle Angerbrücke","town":"Leipzig"},{"advanced":{"equipment":["Bänke","Spielwiese","Schattenplätze","Parkmöglichkeit:","öffentliche Parkplätze vorhanden"],"gaming_devices":["Fussballplatz","Volleyballfeld","Streetballplatz","Wipptier","Wippe","Kletternetz","Sprossenwand"]},"district":"Lindenthal,Nordwest","lat":51.406048,"lines":"87, 88","location":"Parkring","lon":12.344208,"name":"Spielplatz 'Park Breitenfeld'","stops":"Haltestelle Parkring","town":"Leipzig"},{"advanced":{"equipment":["Schattenplätze","Spielwiese","Parkmöglichkeit:","öffentliche Parkplätze vorhanden"],"gaming_devices":["Fussballtore"]},"district":"Meusdorf,Südost","lat":51.29247609999999,"lines":"75, 172","location":"im Park / Höhe Paul-Flechsig-Straße","lon":12.4214352,"name":"Spielplatz 'Park Dösen'","stops":"Haltestelle Pahlenweg","town":"Leipzig"},{"advanced":{"equipment":["Spielwiese","Schattenplätze","Bänke","Parkmöglichkeit:","öffentliche Parkplätze vorhanden"],"gaming_devices":["Tischtennisplatten","Streetballkorb"]},"district":"Miltitz,West","lat":51.3262426,"lines":"65","location":"Rathausring / Geschwister-Scholl-Straße","lon":12.2537294,"name":"Spielplatz 'Park Miltitz'","stops":"Haltestelle Geschwister-Scholl-Straße","town":"Leipzig"},{"advanced":{"equipment":["Spielwiese","Bänke","separater Sitzbereich","Parkmöglichkeit:","öffentliche Parkplätze vorhanden"],"gaming_devices":["Kletterdrachen","Kletterpyramiden","Rutschen"]},"district":"Plaußig-Portitz,Nordost","lat":51.3824136,"lines":"81, 82","location":"Am Künstlerbogen","lon":12.458479,"name":"Spielplatz 'Parkstadt 2000 - Drachen'","stops":"Haltestelle Krätzbergstraße","town":"Leipzig"},{"advanced":{"equipment":["Sandspielfläche","Spielwiese","Schattenplätze","Bänke","Parkmöglichkeit:","öffentliche Parkplätze vorhanden"],"gaming_devices":["Wippelement"]},"district":"Plaußig-Portitz,Nordost","lat":51.3812373,"lines":"81, 82","location":"Werfelstraße ","lon":12.461,"name":"Spielplatz 'Parkstadt 2000'","stops":"Haltestelle Krätzbergstraße","town":"Leipzig"},{"advanced":{"equipment":["Schattenplätze","Sitzmauer","Parkmöglichkeit:","öffentliche Parkplätze vorhanden"],"gaming_devices":["Tischtennisplatte"]},"district":"Zentrum-West,Mitte","lat":51.3366512,"lines":"2, 8, 14, 89","location":"Manetstraße","lon":12.3683222,"name":"Spielplatz 'Plastikgarten'","stops":"Haltestelle Neues Rathaus, Haltestelle Neues Rathaus","town":"Leipzig"},{"advanced":{"equipment":["Spielwiese","Sandspielfläche","Schattenplätze","Bänke","Parkmöglichkeit:","öffentliche Parkplätze vorhanden"],"gaming_devices":["Tischtennisplatten"]},"district":"Gohlis-Mitte,Nord","lat":51.36990609999999,"lines":"4, S10","location":"Platz des 20. Juli 1944","lon":12.3621958,"name":"Spielplatz 'Platz des 20. Juli 1944'","stops":"Haltestelle Coppiplatz, Haltestelle Coppiplatz","town":"Leipzig"},{"advanced":{"equipment":["Spielwiese","Bänke","Parkmöglichkeit:","öffentliche Parkplätze vorhanden"],"gaming_devices":["3-er Reifenpendel"]},"district":"Grünau-Mitte,West","lat":51.3185448,"lines":"1, 2, 66","location":"hinter der Schwimmhalle / Stuttgarter-Allee","lon":12.2904345,"name":"Spielplatz 'Quartierspark Grünauer Welle'","stops":"Haltestelle Stuttgarter Allee, Haltestelle Stuttgarter Allee","town":"Leipzig"},{"advanced":{"equipment":["Naturpfad","Spielwiese","Bänke","Parkmöglichkeit:","öffentliche Parkplätze vorhanden"],"gaming_devices":["Kletterstäbe","Balancierstämme","Klettersteine"]},"district":"Altlindenau,Alt-West","lat":51.33720030000001,"lines":"7, 130, 131","location":"Queckstraße","lon":12.3227526,"name":"Spielplatz 'Queckstraße'","stops":"Haltestelle Georg-Schwarz-Straße, Haltestelle Georg-Schwarz-Straße","town":"Leipzig"},{"advanced":{"equipment":["Schattenplätze","Bänke","Parkmöglichkeit:","öffentliche Parkplätze vorhanden"],"gaming_devices":["Wippe","Kletterkombination","Schaukel","Rutsche","Tischtennisplatte"]},"district":"Anger-Crottendorf,Ost","lat":51.3379527,"lines":"7","location":"Grüne Gasse","lon":12.4107071,"name":"Spielplatz 'Ramdohrscher Park'","stops":"Haltestelle Wiebelstraße","town":"Leipzig"},{"advanced":{"equipment":["Spielwiese","Schattenplätze","Bänke","Sandspielfläche","Parkmöglichkeit:","öffentliche Parkplätze vorhanden"],"gaming_devices":["Doppelschaukel","Kletter- und Rutschturm","Tischtennisplatte"]},"district":"Lößnig,Süd","lat":51.2973355,"lines":"11","location":"Rembrandtstraße","lon":12.3872358,"name":"Spielplatz 'Rembrandtplatz'","stops":"Haltestelle S-Bahnhof Connewitz","town":"Leipzig"},{"advanced":{"equipment":["Spielwiese","Sandspielflächen","Schattenplätze","Bänke","Parkmöglichkeit:","öffentliche Parkplätze vorhanden"],"gaming_devices":["Kletterhaus","Rutsche","Raumkletternetze","Hangrutsche","Drehscheibe","Karussell","Schaukelnest","Balanciersteg","Tischtennisplatte","Kletterröhren","Wasserspiel","Wipptiere","Minirutsche","Minikletterhaus"]},"district":"Zentrum-Süd,Mitte","lat":51.3280292,"lines":"89","location":"Rennbahnweg","lon":12.3612514,"name":"Spielplatz 'Rennbahnweg'","stops":"Haltestelle Telemannstraße","town":"Leipzig"},{"advanced":{"equipment":["Spielwiese","Schattenplätze","Bänke","Parkmöglichkeit:","öffentliche Parkplätze vorhanden"],"gaming_devices":["Grindelemente","Streetballkorb"]},"district":"Reudnitz-Thonberg,Südost","lat":51.3343804,"lines":"4, 70, 72","location":"Sigismundstraße / Charlottenstraße","lon":12.4054017,"name":"Spielplatz 'Reudnitzer Park - Skaterplatz '","stops":"Haltestelle Breitestraße, Haltestelle Breitestraße","town":"Leipzig"},{"advanced":{"equipment":["Spielwiese","Schattenplätze","Bänke","Parkmöglichkeit:","öffentliche Parkplätze vorhanden"],"gaming_devices":["Kletterhölzer","Klettersteine","Holzsteg"]},"district":"Reudnitz-Thonberg,Südost","lat":51.335003,"lines":"4, 70, 72","location":"Sigismundstraße / Wittstockstraße","lon":12.405752,"name":"Spielplatz 'Reudnitzer Park - Kletterplatz'","stops":"Haltestelle Breitestraße, Haltestelle Breitestraße","town":"Leipzig"},{"advanced":{"equipment":["Schattenplätze","Spielwiese","Bänke","Findlinge","Parkmöglichkeit:","öffentliche Parkplätze vorhanden"],"gaming_devices":["Schaukel","Hängematte"]},"district":"Reudnitz-Thonberg,Südost","lat":51.3289108,"lines":"4, 60","location":"Oststraße / Holsteinstraße","lon":12.4097101,"name":"Spielplatz 'Reudnitzer Terrassen'","stops":"Haltestelle Riebeckstraße/Oststraße, Haltestelle Riebeckstraße/Oststraße","town":"Leipzig"},{"advanced":{"equipment":["Sandspielfläche","Spielwiese","Schattenplätze","Bänke","Parkmöglichkeit:","öffentliche Parkplätze vorhanden"],"gaming_devices":["Tischtennisplatten","Wippscheibe","Gurtsteg","Schaukel"]},"district":"Zentrum-Nord,Mitte","lat":51.3563179,"lines":"10, 11, 16","location":"Trufanowstraße / Frickestraße","lon":12.3750277,"name":"Spielplatz 'Richterplatz'","stops":"Haltestelle Chausseehaus","town":"Leipzig"},{"advanced":{"equipment":["Spielwiese","Schatten","Bänke","Parkmöglichkeit:","öffentliche Parkplätze vorhanden"],"gaming_devices":["Schaukeln","Klettersteine","Klettergerüst mit Netz","Wellenbahn","Holzfiguren"]},"district":"Zentrum-Nordwest,Mitte","lat":51.3482311,"lines":"4","location":"Eitingonstraße","lon":12.3509442,"name":"Spielplatz 'Robert-Koch-Platz'","stops":"Haltestelle Am Mückenschlößchen","town":"Leipzig"},{"advanced":{"equipment":["Rodelhügel","Spielwiese","Parkmöglichkeit:","öffentliche Parkplätze vorhanden"],"gaming_devices":["Schaukeln","Klettersteine","Klettergerüst mit Netz","Wellenbahn","Holzfiguren"]},"district":"Zentrum-Südost,Mitte","lat":51.3251476,"lines":"15, 2, 16, 60, 74","location":"Linnéstraße / Phillip-Rosenthal-Straße","lon":12.392638,"name":"Spielplatz 'Rodelhügel im Friedenspark'","stops":"Haltestelle Ostplatz, Haltestelle Deutsche Nationalbibliothek, Haltestelle Ostplatz, Haltestelle Deutsche Nationalbibliothek","town":"Leipzig"},{"advanced":{"equipment":["Sandspielfläche","Spielwiese","Bänke","Parkmöglichkeit:","öffentliche Parkplätze vorhanden"],"gaming_devices":["Kletter-/Rutschturm","Schaukel","Tischtennisplatte","Reck","Federsitz"]},"district":"Schönefeld-Abtnaundorf,Nordost","lat":51.3604102,"lines":"1","location":"Abtnaundorfer Straße / Lazarusstraße","lon":12.4150258,"name":"Spielplatz 'Rotheplatz'","stops":"Haltestelle Ossietzkystraße/Gorkistraße","town":"Leipzig"},{"advanced":{"equipment":["Bänke","Parkmöglichkeit:","öffentliche Parkplätze vorhanden"],"gaming_devices":["Rutsch- und Kletterturm","kleines Rutschhaus","Malwand","Minisitzgruppe"]},"district":"Wiederitzsch,Nord","lat":51.4035462,"lines":"87","location":"Salbeiweg","lon":12.3722536,"name":"Spielplatz 'Salbeiweg'","stops":"Haltestelle Salzhandelsstraße","town":"Leipzig"},{"advanced":{"equipment":["Spielwiese","Bänke","Sandspielfläche","Schattenplätze","Parkmöglichkeit:","öffentliche Parkplätze vorhanden"],"gaming_devices":["Tischtennisplatten"]},"district":"Plaußig-Portitz,Nordost","lat":51.3845383,"lines":"81, 82","location":"Sandgrubenweg / Hügelweg","lon":12.4595959,"name":"Spielplatz 'Sandgrube Portitz'","stops":"Haltestelle Krätzbergstraße","town":"Leipzig"},{"advanced":{"equipment":["Schattenplätze","Bänke","Parkmöglichkeit:","öffentliche Parkplätze vorhanden"],"gaming_devices":["Gurtsteg","Kletternetz","Hängeseile"]},"district":"Südvorstadt,Süd","lat":51.3204386,"lines":"9, 60","location":"Schenkendorfstraße / Lößniger Straße","lon":12.3817246,"name":"Spielplatz 'Schenkendorfplatz'","stops":"Haltestelle Körnerstraße, Haltestelle Körnerstraße","town":"Leipzig"},{"advanced":{"equipment":["Schattenplätze","Bänke","Parkmöglichkeit:","öffentliche Parkplätze vorhanden"],"gaming_devices":["Kletterturm","Rutschturm","Steintiere","Tischtennisplatte"]},"district":"Gohlis-Süd,Nord","lat":51.3604827,"lines":"4","location":"Platnerstraße / Stallbaumstraße","lon":12.3562275,"name":"Spielplatz 'Schillerhain'","stops":"Haltestelle Stallbaumstraße","town":"Leipzig"},{"advanced":{"equipment":["Sandspielfläche","Spielwiese","Schattenplätze","Bänke","Parkmöglichkeit:","öffentliche Parkplätze vorhanden"],"gaming_devices":["Kletterturm","Rutschturm","Steintiere","Tischtennisplatte"]},"district":"Wahren,Nordwest","lat":51.37458549999999,"lines":"11","location":"Auenseestraße","lon":12.3163705,"name":"Spielplatz 'Schillerplatz'","stops":"Haltestelle Pittlerstraße","town":"Leipzig"},{"advanced":{"equipment":["Spielwiese","Schattenplätze","Bänke","Parkmöglichkeit:","öffentliche Parkplätze vorhanden"],"gaming_devices":["Tischtennisplatte","Kletterturm","Rutsche","Wipptier","Laufrolle","Wippe","Reck"]},"district":"Wiederitzsch,Nord","lat":51.398782,"lines":"16","location":"Stentzlerstraße / Hermann-Keller-Straße","lon":12.3758013,"name":"Spielplatz 'Schmuckplatz'","stops":"Haltestelle Wiederitzsch-Mitte","town":"Leipzig"},{"advanced":{"equipment":["Schattenplätze","Spielwiese","Bänke","Sandspielfläche","Rodelhügel","Parkmöglichkeit:","öffentliche Parkplätze vorhanden"],"gaming_devices":["Kletterhaus mit Rutsche","Schaukel","Kletternetz","Rutschpodest","Sandseilzug","Karussell","Seilbahn","Trampolin"]},"district":"Schönau,West","lat":51.3302074,"lines":"8, 15, 66","location":"Schönauer Lachen","lon":12.2916153,"name":"Spielplatz 'Schönauer Park'","stops":"Haltestelle Parkallee, Haltestelle Parkallee","town":"Leipzig"},{"advanced":{"equipment":["Spielwiese","Bänke","Parkmöglichkeit:","öffentliche Parkplätze vorhanden"],"gaming_devices":["Kletterstäbe"]},"district":"Schönau,West","lat":51.324379,"lines":"8, 62","location":"Dornburger Weg","lon":12.2822712,"name":"Spielplatz 'Schönauer Welle - Kletterplatz","stops":"Haltestelle Grünau-Nord, Haltestelle Kiewer Straße","town":"Leipzig"},{"advanced":{"equipment":["Bänke","Sandspielfläche","Spielwiese","Parkmöglichkeit:","öffentliche Parkplätze vorhanden"],"gaming_devices":["Klettersteine"]},"district":"Schönau,West","lat":51.3227469,"lines":"8, 62","location":"unterhalb Römhilder Weg","lon":12.2774825,"name":"Spielplatz 'Schönauer Welle - Sandspielplatz'","stops":"Haltestelle Grünau-Nord, Haltestelle Kiewer Straße","town":"Leipzig"},{"advanced":{"equipment":["Spielwiese","Bänke","Parkmöglichkeit:","öffentliche Parkplätze vorhanden"],"gaming_devices":["Sechseckschaukel"]},"district":"Schönau,West","lat":51.3227469,"lines":"8, 62","location":"unterhalb Römhilder Weg","lon":12.2774825,"name":"Spielplatz 'Schönauer Welle - Schaukelplatz'","stops":"Grünau-Nord, Kiewer Straße","town":"Leipzig"},{"advanced":{"equipment":["Sportwiese","Bänke","Parkmöglichkeit:","öffentliche Parkplätze vorhanden"],"gaming_devices":["Sechseckschaukel"]},"district":"Schönau,West","lat":51.324379,"lines":"8, 62","location":"Dornburger Weg","lon":12.2822712,"name":"Spielplatz 'Schönauer Welle - Sportwiese'","stops":"Haltestelle Grünau-Nord, Haltestelle Kiewer Straße","town":"Leipzig"},{"advanced":{"equipment":["Bänke","Parkmöglichkeit:","öffentliche Parkplätze vorhanden"],"gaming_devices":["Tischtennisplatte"]},"district":"Schönau,West","lat":51.3192051,"lines":"15, 62, 61, 65, 80E, 161","location":"unterhalb Römhilder Weg / Kiewer Straße","lon":12.2776237,"name":"Spielplatz 'Schönauer Welle - Tischtennisplatz'","stops":"Haltestelle Am Kirchberg, Haltestelle Kiewer Straße, Haltestelle Am Kirchberg","town":"Leipzig"},{"advanced":{"equipment":["Sandspielfläche","Schattenplätze","Bänke","Parkmöglichkeit:","öffentliche Parkplätze vorhanden"],"gaming_devices":["Wippe","Kletterturm","Rutsche","Kletterwand","Matschtisch","Kletterpodest","Fußballplatz","Tischtennisplatte"]},"district":"Neustadt-Neuschönefeld,Ost","lat":51.3464047,"lines":"1, 3, 8","location":"Schulze-Delitzsch-Straße / Rosa-Luxemburg-Straße","lon":12.3947384,"name":"Spielplatz 'Schulze-Delitzsch-Straße'","stops":"Haltestelle Einertstraße","town":"Leipzig"},{"advanced":{"equipment":["Sandspielfläche","Schattenplätze","Spielwiese","Bänke","Parkmöglichkeit:","öffentliche Parkplätze vorhanden"],"gaming_devices":["Raumkletternetz","Holzhaus","Wipptiere","Karussell"]},"district":"Kleinzschocher,Südwest","lat":51.3154695,"lines":"3","location":"Schwartzestraße","lon":12.3235036,"name":"Spielplatz 'Schwartzeplatz'","stops":"Haltestelle Schwartzestraße","town":"Leipzig"},{"advanced":{"equipment":["Sitzgruppe","Sandspielfläche","Spielwiese","Parkmöglichkeit:","öffentliche Parkplätze vorhanden"],"gaming_devices":["Kletterpodest","Rutsche","Schaukel"]},"district":"Lausen-Grünau,West","lat":51.3133805,"lines":"62, 66","location":"Selliner Straße","lon":12.263152,"name":"Spielplatz 'Selliner Straße'","stops":"Haltestelle Selliner Straße - Gesundheitszentrum","town":"Leipzig"},{"advanced":{"equipment":["Sandspielfläche","Spielwiese","Bänke","Parkmöglichkeit:","öffentliche Parkplätze vorhanden"],"gaming_devices":["Doppelschaukel","Wippe","Kletternetz","Rutschturm","Kletterwand","Federbrett","Schaufelbagger","Holzspielbank"]},"district":"Liebertwolkwitz,Südost","lat":51.2771155,"lines":"75","location":"Siedlereck / Oberholzstraße","lon":12.4737618,"name":"Spielplatz 'Siedlereck'","stops":"Haltestelle Störmthaler Straße","town":"Leipzig"},{"advanced":{"equipment":["Schattenplätze","Spielwiese","Bänke","Parkmöglichkeit:","öffentliche Parkplätze vorhanden"],"gaming_devices":["Seilbahn","Klettergerüst","Hängematte","Rutsche","Wippe","Wipptier","Tischtennisplatten","Balancierbalken"]},"district":"Meusdorf,Südost","lat":51.2901967,"lines":"15, 75, 172","location":"Schwarzenbergweg","lon":12.4358545,"name":"Spielplatz 'Siedlung Meusdorf'","stops":"Haltestelle Meusdorf, Haltestelle Monarchenhügel","town":"Leipzig"},{"advanced":{"equipment":["Sandspielfläche","Spielwiese","Schattenplätze","Bänke","Parkmöglichkeit:","öffentliche Parkplätze vorhanden"],"gaming_devices":["Kletterturm mit Rutsche","Schaukel","Tischtennisplatte"]},"district":"Reudnitz-Thonberg,Südost","lat":51.3267278,"lines":"4","location":"Nobbeweg / Reinhold-Krüger-Straße","lon":12.4093506,"name":"Spielplatz 'Simonsplatz'","stops":"Haltestelle S-Bahnhof Stötteritz","town":"Leipzig"},{"advanced":{"equipment":["Bänke","Parkmöglichkeit:","öffentliche Parkplätze vorhanden"],"gaming_devices":["Skaterparcour"]},"district":"Grünau-Ost,West","lat":51.3217887,"lines":"8, 15, 61, 161","location":"Am Übergang","lon":12.3045583,"name":"Spielplatz 'Skaterpark'","stops":"Haltestelle Parkallee, Haltestelle Weißdornstraße","town":"Leipzig"},{"advanced":{"equipment":["Schattenplätze","Bänke","Parkmöglichkeit:","öffentliche Parkplätze vorhanden"],"gaming_devices":["Balancierbalken","Kletterturm"]},"district":"Paunsdorf,Ost","lat":51.3481509,"lines":"3, 7, 90","location":"Sommerfelder Weg","lon":12.4802158,"name":"Spielplatz 'Sommerfelder Weg'","stops":"Haltestelle Paunsdorf Center, Haltestelle Paunsdorf Center","town":"Leipzig"},{"advanced":{"equipment":["Sandspielfläche","Spielwiese","Bänke","Parkmöglichkeit:","öffentliche Parkplätze vorhanden"],"gaming_devices":["Reifenpendel","Wipptiere","Kletternetz"]},"district":"Probstheida,Südost","lat":51.3017531,"lines":"15, 76","location":"Buckyweg","lon":12.4345187,"name":"Spielplatz 'Sonnenpark'","stops":"Haltestelle Franzosenallee, Haltestelle Franzosenallee","town":"Leipzig"},{"advanced":{"equipment":["Spielwiese","Bänke","Parkmöglichkeit:","öffentliche Parkplätze vorhanden"],"gaming_devices":["Tischtennisplatten","Kletterhaus","Hängematten","Schaukel","Kletterburg","Doppelschaukel"]},"district":"Grünau-Nord,West","lat":51.3254062,"lines":"15","location":"Neptunweg","lon":12.2685109,"name":"Spielplatz 'Spielhügel Am Neptunweg'","stops":"Haltestelle Saturnstraße","town":"Leipzig"},{"advanced":{"equipment":["Schattenplätze","Bänke","Parkmöglichkeit:","öffentliche Parkplätze vorhanden"],"gaming_devices":["Klettergerüst","Tischtennisplatte"]},"district":"Volkmarsdorf,Ost","lat":51.3444654,"lines":"1, 3, 8, 70","location":"Mariannenstraße / Elisabethstraße","lon":12.4090467,"name":"Spielplatz 'Stadtplatz'","stops":"Haltestelle Hermann-Liebmann-Straße/Eisenbahnstraße, Haltestelle Hermann-Liebmann-Straße/Eisenbahnstraße","town":"Leipzig"},{"advanced":{"equipment":["Boulplatz","Spielwiese","Sandspielfläche","Bänke","Parkmöglichkeit:","öffentliche Parkplätze vorhanden"],"gaming_devices":["Hangrutsche","Kletterwürfel","Federteller","Drehscheibe","Kletterstifte"]},"district":"Plagwitz,Südwest","lat":51.3272469,"lines":"3, 74","location":"Industriestraße","lon":12.3375587,"name":"Spielplatz 'Stadtteilpark Plagwitz'","stops":"Haltestelle Elster-Passage, Haltestelle Elster-Passage","town":"Leipzig"},{"advanced":{"equipment":["Bänke","Spielwiese","Parkmöglichkeit:","öffentliche Parkplätze vorhanden"],"gaming_devices":["Tischtennisplatten","Skaterplatz","Fußballfeld","Streetballplatz","Beachballplatz"]},"district":"Neustadt-Neuschönefeld,Ost","lat":51.34343819999999,"lines":"1, 3, 8, 70","location":"Rabet","lon":12.4029903,"name":"Spielplatz 'Stadtteilpark Rabet - Ball- und Skaterplatz'","stops":"Haltestelle Hermann-Liebmann-Straße/Eisenbahnstraße, Haltestelle Hermann-Liebmann-Straße/Eisenbahnstraße","town":"Leipzig"},{"advanced":{"equipment":["Spielwiese","Sandspielfläche","Parkmöglichkeit:","öffentliche Parkplätze vorhanden"],"gaming_devices":["Balancierholz","Holzwippe","Hangelstrecke"]},"district":"Neustadt-Neuschönefeld,Ost","lat":51.34343819999999,"lines":"1, 3, 8, 70","location":"Rabet","lon":12.4029903,"name":"Spielplatz 'Stadtteilpark Rabet - Holzspielplatz'","stops":"Haltestelle Hermann-Liebmann-Straße/Eisenbahnstraße, Haltestelle Hermann-Liebmann-Straße/Eisenbahnstraße","town":"Leipzig"},{"advanced":{"equipment":["Spielwiese","Schattenplätze","Bänke","Laufstrecke","Parkmöglichkeit:","öffentliche Parkplätze vorhanden"],"gaming_devices":["Kletternetz","Schiffswrack","Hangrutsche","Würfel","Drehscheibe","Reifenpendel","Karussell"]},"district":"Neustadt-Neuschönefeld,Ost","lat":51.34343819999999,"lines":"1, 3, 8, 70","location":"Rabet","lon":12.4029903,"name":"Spielplatz 'Stadtteilpark Rabet - Piratenplatz Bounty'","stops":"Haltestelle Hermann-Liebmann-Straße/Eisenbahnstraße, Haltestelle Hermann-Liebmann-Straße/Eisenbahnstraße","town":"Leipzig"},{"advanced":{"equipment":["Spielwiese","Bänke","Parkmöglichkeit:","öffentliche Parkplätze vorhanden"],"gaming_devices":["Schaukel"]},"district":"Neustadt-Neuschönefeld,Ost","lat":51.34343819999999,"lines":"1, 3, 8, 70","location":"Rabet","lon":12.4029903,"name":"Spielplatz 'Stadtteilpark Rabet - Schaukelplatz'","stops":"Haltestelle Hermann-Liebmann-Straße/Eisenbahnstraße, Haltestelle Hermann-Liebmann-Straße/Eisenbahnstraße","town":"Leipzig"},{"advanced":{"equipment":["Schattenplätze","Bänke","Parkmöglichkeit:","öffentliche Parkplätze vorhanden"],"gaming_devices":["Rutsch- und Kletterturm"]},"district":"Lützschena-Stahmeln,Nordwest","lat":51.376055,"lines":"11","location":"Stahmelner Anger","lon":12.3041655,"name":"Spielplatz 'Stahmelner Anger'","stops":"Haltestelle Stahmeln","town":"Leipzig"},{"advanced":{"equipment":["Spielwiese","Bänke","Sandspielfläche","Parkmöglichkeit:","öffentliche Parkplätze vorhanden"],"gaming_devices":["Doppelschaukel","Kletter- und Rutschturm","Kreidetafel"]},"district":"Lützschena-Stahmeln,Nordwest","lat":51.3754009,"lines":"11","location":"Stahmelner Straße","lon":12.307685,"name":"Spielplatz 'Stahmelner Straße'","stops":"Haltestelle Stahmeln","town":"Leipzig"},{"advanced":{"equipment":["Spielwiese","Bänke","Sandspielfläche","Findlinge","Schattenplätze","Parkmöglichkeit:","öffentliche Parkplätze vorhanden"],"gaming_devices":["Kletteranlage","Kletterseile","Hängekorb","Matschtisch","Holzsteg","Schaukel","Kletternetz","Rutschen","Gurtsteg","Klettersteg"]},"district":"Südvorstadt,Süd","lat":51.3195612,"lines":"9, 100","location":"Steinstraße / Bernhard-Göring-Straße","lon":12.3767275,"name":"Spielplatz 'Steinplatz'","stops":"Haltestelle Steinplatz, Haltestelle Steinplatz","town":"Leipzig"},{"advanced":{"equipment":["Sandspielfläche","Spielwiese","Schattenplätze","Bänke","Parkmöglichkeit:","öffentliche Parkplätze vorhanden"],"gaming_devices":["Kletterhalbkugel","Kletterpyramide","Rutschturm","Kletterwand","Springnetz","Fußballplatz","Tischtennisplatz","Spielröhren"]},"district":"Reudnitz-Thonberg,Südost","lat":51.3382914,"lines":"4, 7, 70, 72, 73","location":"Crusiusstraße / Stephaniplatz","lon":12.3992117,"name":"Spielplatz 'Stephaniplatz'","stops":"Haltestelle Gerichtsweg, Haltestelle Reudnitz-Koehlerstraße","town":"Leipzig"},{"advanced":{"equipment":["Sandspielfläche","Spielwiese","Bänke","Parkmöglichkeit:","öffentliche Parkplätze vorhanden"],"gaming_devices":["Kletterholz","Holztier 'Kleiner Schneck'","Spirale"]},"district":"Stötteritz,Südost","lat":51.3214427,"lines":"4, 74, 79","location":"Oberdorfstraße","lon":12.4248776,"name":"Spielplatz 'Stötteritzer Wäldchen - Kleiner Schneck'","stops":"Haltestelle Kolmstraße, Haltestelle Kolmstraße","town":"Leipzig"},{"advanced":{"equipment":["Spielwiese","Schattenplätze","Parkmöglichkeit:","öffentliche Parkplätze vorhanden"],"gaming_devices":["Kletterholz 'Waldtelefon'"]},"district":"Stötteritz,Südost","lat":51.3214427,"lines":"4, 74, 79","location":"Oberdorfstraße","lon":12.4248776,"name":"Spielplatz 'Stötteritzer Wäldchen - Kletterplatz'","stops":"Haltestelle Kolmstraße, Haltestelle Kolmstraße","town":"Leipzig"},{"advanced":{"equipment":["Rodelhügel","Spielwiese","Parkmöglichkeit:","öffentliche Parkplätze vorhanden"],"gaming_devices":["Kletterholz 'Waldtelefon'"]},"district":"Stötteritz,Südost","lat":51.3214427,"lines":"4, 74, 79","location":"Oberdorfstraße","lon":12.4248776,"name":"Spielplatz 'Stötteritzer Wäldchen - Rodelhügel'","stops":"Haltestelle Kolmstraße, Haltestelle Kolmstraße","town":"Leipzig"},{"advanced":{"equipment":["Spielwiese","Schattenplätze","Bänke","Parkmöglichkeit:","öffentliche Parkplätze vorhanden"],"gaming_devices":["Tischtennisplatte"]},"district":"Stötteritz,Südost","lat":51.3214427,"lines":"4, 74, 79","location":"Oberdorfstraße","lon":12.4248776,"name":"Spielplatz 'Stötteritzer Wäldchen - Tischtennisplatz'","stops":"Haltestelle Kolmstraße, Haltestelle Kolmstraße","town":"Leipzig"},{"advanced":{"equipment":["Sandspielfläche","Findlinge","Spielwiese","Bänke","Parkmöglichkeit:","öffentliche Parkplätze vorhanden"],"gaming_devices":["Holzklettergerüst"]},"district":"Stötteritz,Südost","lat":51.3214427,"lines":"4, 74, 79","location":"Oberdorfstraße","lon":12.4248776,"name":"Spielplatz 'Stötteritzer Wäldchen - Waldspielplatz'","stops":"Haltestelle Kolmstraße, Haltestelle Kolmstraße","town":"Leipzig"},{"advanced":{"equipment":["Spielwiese","Parkmöglichkeit:","öffentliche Parkplätze vorhanden"],"gaming_devices":["Streetballkorb"]},"district":"Zentrum-Südost,Mitte","lat":51.3251476,"lines":"15, 2, 16, 60, 74","location":"Linnéstraße / Phillip-Rosenthal-Straße","lon":12.392638,"name":"Spielplatz 'Streetballplatz im Friedenspark'","stops":"Haltestelle Ostplatz, Haltestelle Deutsche Nationalbibliothek, Haltestelle Ostplatz, Haltestelle Deutsche Nationalbibliothek","town":"Leipzig"},{"advanced":{"equipment":["Bänke","Sandspielfläche","Parkmöglichkeit:","öffentliche Parkplätze vorhanden"],"gaming_devices":["Rutschkugel","Rutschstangen"]},"district":"Grünau-Mitte,West","lat":51.3185448,"lines":"8, 15, 61, 65, 66, 80E, 161","location":"Stuttgarter Allee ","lon":12.2904345,"name":"Spielplatz 'Stuttgarter Allee'","stops":"Haltestelle Schönauer Ring, Haltestelle Schönauer Ring","town":"Leipzig"},{"advanced":{"equipment":["Spielwiese","Parkmöglichkeit:","öffentliche Parkplätze vorhanden"],"gaming_devices":["Doppelschaukel","Kletterbalken"]},"district":"Gohlis-Nord,Nord","lat":51.3780084,"lines":"4","location":"Sylter Straße / Bremer Straße ","lon":12.3647038,"name":"Spielplatz 'Sylter Straße'","stops":"Haltestelle Beyerleinstraße","town":"Leipzig"},{"advanced":{"equipment":["Sitzgruppe","Spielwiese","Schattenplätze","Bänke","Parkmöglichkeit:","öffentliche Parkplätze vorhanden"],"gaming_devices":["Rutsche","Pendelkreuz","Sitzkarussell","Holzklettergerüst"]},"district":"Connewitz,Süd","lat":51.3396955,"lines":"9, 107","location":"Teichstraße/Zugang Mühlholz ","lon":12.3730747,"name":"Spielplatz 'Teichstraße'","stops":"Haltestelle Mathildenstraße, Haltestelle Mathildenstraße","town":"Leipzig"},{"advanced":{"equipment":["Bänke","Parkmöglichkeit:","öffentliche P+R Parkplätze an der Georg-Herwegh-Straße vorhanden"],"gaming_devices":["Doppelschaukel","Klettergerüst","Wipptier","Wippe"]},"district":"Wiederitzsch,Nord","lat":51.398243,"lines":"16","location":"Theobald-Beer-Straße ","lon":12.3797123,"name":"Spielplatz 'Theobald-Beer-Straße'","stops":"Haltestelle Georg-Herwegh-Straße","town":"Leipzig"},{"advanced":{"equipment":["Schattenplätze","Spielwiese","Bänke","Sandspielfläche","Parkmöglichkeit:","öffentliche Parkplätze vorhanden"],"gaming_devices":["Kletternetz","Drehscheibe","Kletter- und Rutschhaus","Balancierseile","Reifenschaukel"]},"district":"Stötteritz,Südost","lat":51.3365878,"lines":"4, 74, 79","location":"Thiemstraße / Václac-Neumann-Straße","lon":12.4138141,"name":"Spielplatz 'Thiemstraße'","stops":"Haltestelle Rathaus Stötteritz, Haltestelle Rathaus Stötteritz, Haltestelle Schwimmhalle Südost","town":"Leipzig"},{"advanced":{"equipment":["Sandspielfläche","Spielwiese","Findlinge","Schattenplätze","Bänke","Parkmöglichkeit:","öffentliche Parkplätze vorhanden"],"gaming_devices":["Tischtennisplatte","Fußballtore","Drehscheibe","Holzkletterhaus"]},"district":"Stötteritz,Südost","lat":51.3212463,"lines":"2, 15, 70, 74","location":"Lichtenbergweg / Güntzstraße","lon":12.4096506,"name":"Spielplatz 'Thonberger Park'","stops":"Haltestelle Naunhofer Straße, Haltestelle Naunhofer Straße","town":"Leipzig"},{"advanced":{"equipment":["Schatten","Spielwiese","Bänke","Parkmöglichkeit:","öffentliche Parkplätze vorhanden"],"gaming_devices":["Tischtennisplatten"]},"district":"Zentrum-Südost,Mitte","lat":51.3251476,"lines":"15, 2, 16, 60, 74","location":"Linnéstraße / Phillip-Rosenthal-Straße","lon":12.392638,"name":"Spielplatz 'Tischtennisplatz im Friedenspark'","stops":"Haltestelle Ostplatz, Haltestelle Deutsche Nationalbibliothek, Haltestelle Ostplatz, Haltestelle Deutsche Nationalbibliothek","town":"Leipzig"},{"advanced":{"equipment":["Spielwiese","Bänke","Parkmöglichkeit:","öffentliche Parkplätze vorhanden"],"gaming_devices":["Kletterturm","Rutsche"]},"district":"Grünau-Nord,West","lat":51.31995999999999,"lines":"15, 62, 65, 66","location":"Titaniaweg","lon":12.2762173,"name":"Spielplatz 'Titaniaweg'","stops":"Haltestelle Kiewer Straße, Haltestelle Kiewer Straße","town":"Leipzig"},{"advanced":{"equipment":["Spielwiese","Bänke","Parkmöglichkeit:","öffentliche Parkplätze vorhanden"],"gaming_devices":["Wipptier","Klettergerüst","Wippe","Kletterholz"]},"district":"Engelsdorf,Ost","lat":51.33930059999999,"lines":"172","location":"Topasstraße (Richtung Hans-Weigel-Straße)","lon":12.4763541,"name":"Spielplatz 'Topasstraße'","stops":"Haltestelle Opalstraße","town":"Leipzig"},{"advanced":{"equipment":["Sandspielfläche","Bänke","Parkmöglichkeit:","öffentliche Parkplätze vorhanden"],"gaming_devices":["Tischtennisplatte","Klettergerüst"]},"district":"Engelsdorf,Ost","lat":51.34016279999999,"lines":"172","location":"Topasstraße","lon":12.4837463,"name":"Spielplatz 'Topasstraße/Höhe Gaswerksweg'","stops":"Haltestelle Opalstraße","town":"Leipzig"},{"advanced":{"equipment":["Jugendsitzbereich","Bänke","Schattenplätze","Spielwiese","Parkmöglichkeit:","öffentliche Parkplätze vorhanden"],"gaming_devices":["Tischtennisplatten","Streetballkorb"]},"district":"Grünau-Nord,West","lat":51.3230753,"lines":"62, 66","location":"Uranusstraße","lon":12.2717667,"name":"Spielplatz 'Uranuspark'","stops":"Haltestelle Uranusstraße","town":"Leipzig"},{"advanced":{"equipment":["Sandspielfläche","Bänke","Parkmöglichkeit:","öffentliche Parkplätze vorhanden"],"gaming_devices":["Kletterturm","Rutsche"]},"district":"Engelsdorf,Ost","lat":51.3393023,"lines":"172","location":"Verdistraße","lon":12.4841195,"name":"Spielplatz 'Verdistraße'","stops":"Haltestelle Opalstraße","town":"Leipzig"},{"advanced":{"equipment":["Schattenplätze","Bänke","Parkmöglichkeit:","öffentliche Parkplätze vorhanden"],"gaming_devices":["Wippe","Klettersteine"]},"district":"Volkmarsdorf,Ost","lat":51.3434288,"lines":"3, 7, 8, 70","location":"Zolikoferstraße / Lukasstraße","lon":12.4098156,"name":"Spielplatz 'Volkmarsdorfer Markt'","stops":"Haltestelle Torgauer Platz, Haltestelle Dornbergerstraße","town":"Leipzig"},{"advanced":{"equipment":["Spielwiese","Schattenplätze","Bänke","Parkmöglichkeit:","öffentliche Parkplätze vorhanden"],"gaming_devices":["Raumkletternetz","Gurtsteg","Balanciersteg"]},"district":"Schönefeld-Ost,Nordost","lat":51.3578412,"lines":"3","location":"Volksgartenstraße / Torgauer Straße","lon":12.4390044,"name":"Spielplatz 'Volksgarten'","stops":"Haltestelle Volksgartenstraße","town":"Leipzig"},{"advanced":{"equipment":["Sandspielfläche","Spielwiese","Schattenplätze","Bänke","Parkmöglichkeit:","öffentliche Parkplätze vorhanden"],"gaming_devices":["Raumkletternetz","Gurtsteg","Balanciersteg"]},"district":"Anger-Crottendorf,Ost","lat":51.3374519,"lines":"77","location":"Pflaumenallee / Borngasse","lon":12.4321071,"name":"Spielplatz 'Volkshain Stünz'","stops":"Haltestelle Stünz","town":"Leipzig"},{"advanced":{"equipment":["Bänke","Spielwiese","Parkmöglichkeit:","öffentliche Parkplätze vorhanden"],"gaming_devices":["Kletterpyramide","Rutsche","Seilstrecke","Streetballkorb","Tischtennisplatten","Torwände aus Stein"]},"district":"Kleinzschocher,Südwest","lat":51.233151,"lines":"1, 2, 60, 74","location":"im Volkspark","lon":12.385111,"name":"Spielplatz 'Volkspark Kleinzschocher - Ballspielplatz'","stops":"Haltestelle Rödelstraße, Haltestelle Rödelstraße","town":"Leipzig"},{"advanced":{"equipment":["Schattenplätze","Bänke","Spielwiese","Parkmöglichkeit:","öffentliche Parkplätze vorhanden"],"gaming_devices":["Holzkrokodil","Wipptiere","Steintier"]},"district":"Kleinzschocher,Südwest","lat":51.3396955,"lines":"3","location":"am Eingang zum Park","lon":12.3730747,"name":"Spielplatz 'Volkspark Kleinzschocher - Holzspielplatz'","stops":"Haltestelle Schwartzestraße","town":"Leipzig"},{"advanced":{"equipment":["Spielplatz","Schattenplätze","Bänke","Parkmöglichkeit:","öffentliche Parkplätze vorhanden"],"gaming_devices":["Volleyballfeld","Fitnessgeräte","Bouleplatz"]},"district":"Zentrum-Südost,Mitte","lat":51.3251476,"lines":"15, 2, 16, 60, 74","location":"Linnéstraße / Phillip-Rosenthal-Straße","lon":12.392638,"name":"Spielplatz 'Volleyball- und Fitnessplatz im Friedenspark'","stops":"Haltestelle Ostplatz, Haltestelle Deutsche Nationalbibliothek, Haltestelle Ostplatz, Haltestelle Deutsche Nationalbibliothek","town":"Leipzig"},{"advanced":{"equipment":["Sandspielfläche","Spielwiese","Schattenplätze","Bänke","Parkmöglichkeit:","öffentliche Parkplätze vorhanden"],"gaming_devices":["Steintiere"]},"district":"Zentrum-Nordwest,Mitte","lat":51.3396955,"lines":"12","location":"Emil-Fuchs-Straße / Rückseite Zoo","lon":12.3730747,"name":"Spielplatz 'Vorderes Rosental'","stops":"Haltestelle Am Zoo","town":"Leipzig"},{"advanced":{"equipment":["Spielwiese","Schattenplätze","Bänke","Parkmöglichkeit:","Hinweis:","Die öffentlichen Parkplätze befinden sich außerhalb des Forstgebietes."],"gaming_devices":["Doppelschaukel","Klettergerüst","Balancierbalken","Gewichtheber","Holzsitzgruppe"]},"district":"Leutzsch,Alt-West","lat":51.3396955,"lines":"67","location":"Am KGV 'Waldluft'/ im Forst","lon":12.3730747,"name":"Spielplatz 'Waldluft'","stops":"Haltestelle Mathiesenstraße","town":"Leipzig"},{"advanced":{"equipment":["Schattenplätze","Bänke","Parkmöglichkeit:","öffentliche Parkplätze vorhanden"],"gaming_devices":["Balancierrolle","Pendelmast","Federteller","Doppelschaukel"]},"district":"Holzhausen,Südost","lat":51.3130961,"lines":"74, 172","location":"Walter-Markov-Ring / Höhe Maienweg","lon":12.4532053,"name":"Spielplatz 'Walter-Markov-Ring'","stops":"Haltestelle Sophienhöhe","town":"Leipzig"},{"advanced":{"equipment":["Spielwiese mit Rodelhügel","Schattenplätze","Bänke","Parkmöglichkeit:","öffentliche Parkplätze vorhanden"],"gaming_devices":["Tischtennisplatte"]},"district":"Sellerhausen-Stünz,Ost","lat":51.3490982,"lines":"90","location":"Weidlichstraße","lon":12.437792,"name":"Spielplatz 'Weidlichstraße'","stops":"Haltestelle Elisabeth-Schumacher-Straße","town":"Leipzig"},{"advanced":{"equipment":["Schattenplätze","Bänke","Parkmöglichkeit:","öffentliche Parkplätze vorhanden"],"gaming_devices":["Tischtennisplatte"]},"district":"Neustadt-Neuschönefeld,Ost","lat":51.3418614,"lines":"4, 7","location":"Weidmannstraße/Reclamstraße","lon":12.4001048,"name":"Spielplatz 'Weidmannstraße'","stops":"Haltestelle Gerichtsweg","town":"Leipzig"},{"advanced":{"equipment":["Schattenplätze","Bänke","Sandspielfläche","Spielwiese","Parkmöglichkeit:","öffentliche Parkplätze vorhanden"],"gaming_devices":["Rutschhalbkugel"]},"district":"Stötteritz,Südost","lat":51.3211187,"lines":"4","location":"Weißestraße / Arnoldstraße","lon":12.4190271,"name":"Spielplatz 'Weißeplatz'","stops":"Haltestelle Weißestraße","town":"Leipzig"},{"advanced":{"equipment":["Spielwiese","Bänke","Parkmöglichkeit:","öffentliche Parkplätze vorhanden"],"gaming_devices":["Kletterstein","Baumstämme"]},"district":"Mockau-Nord,Nordost","lat":51.3820499,"lines":"1, 9, 70, 80","location":"Mockauer Straße / Tauchaer Straße","lon":12.4442831,"name":"Spielplatz 'WG Mockau'","stops":"Haltestelle Mockauer Post, Haltestelle Mockauer Post","town":"Leipzig"},{"advanced":{"equipment":["Spielwiese","Schattenplätze","Bänke","Parkmöglichkeit:","öffentliche Parkplätze vorhanden"],"gaming_devices":["Kletternetz","Doppelrutsche","Drehscheibe"]},"district":"Möckern,Nordwest","lat":51.3697277,"lines":"10, 11, 90","location":"Yorckstraße / Christian-Ferkel-Straße","lon":12.3406599,"name":"Spielplatz 'WG Möckern'","stops":"Haltestelle Dantestraße, Haltestelle Slevogtstraße","town":"Leipzig"},{"advanced":{"equipment":["Schattenplätze","Bänke","Spielwiese","Parkmöglichkeit:","öffentliche Parkplätze vorhanden"],"gaming_devices":["Kletter-und Rutschturm","Hängematte"]},"district":"Paunsdorf,Ost","lat":51.3546466,"lines":"7, 8","location":"Platanenstraße","lon":12.4623766,"name":"Spielplatz 'WG Paunsdorf'","stops":"Haltestelle Ahornstraße","town":"Leipzig"},{"advanced":{"equipment":["Sandspielfläche","Schattenplätze","Bänke","Parkmöglichkeit:","öffentliche Parkplätze vorhanden"],"gaming_devices":["Rutschpodest","Schaukel","Federwippe","Pendel"]},"district":"Schönefeld-Ost,Nordost","lat":51.3552215,"lines":"3","location":"Bästleinstraße / Schwantesstraße","lon":12.430187,"name":"Spielplatz 'WG Schönefeld'","stops":"Haltestelle Schwantestraße","town":"Leipzig"},{"advanced":{"equipment":["Schattenplätze","Bänke","Parkmöglichkeit:","öffentliche Parkplätze vorhanden"],"gaming_devices":["Tischtennisplatte"]},"district":"Sellerhausen-Stünz,Ost","lat":51.3812849,"lines":"3, 77, 90","location":"Louis-Fürnberg-Straße / Portitzer Straße","lon":12.484402,"name":"Spielplatz 'WG Sellerhausen'","stops":"Haltestelle Permoserstraße/Torgauer Straße, Haltestelle Permoserstraße/Torgauer Straße","town":"Leipzig"},{"advanced":{"equipment":["Spielwiese","Parkmöglichkeit:","öffentliche Parkplätze vorhanden"],"gaming_devices":["Fussballtore"]},"district":"Thekla,Nordost","lat":51.36947670000001,"lines":"70, 80, 83","location":"Theklaer Straße","lon":12.4254271,"name":"Spielplatz 'WG Thekla'","stops":"Neutzscher Straße","town":"Leipzig"},{"advanced":{"equipment":["Sandspielfläche","Schattenplätze","Bänke","Parkmöglichkeit:","öffentliche Parkplätze vorhanden"],"gaming_devices":["Kletterwand","Rutschturm","Schaukel","Drehschüssel"]},"district":"Connewitz,Süd","lat":51.3195612,"lines":"10","location":"Wiedebachstraße/Bernhard-Göring-Straße","lon":12.3767275,"name":"Spielplatz 'Wiedebachplatz'","stops":"Haltestelle Wiedebachplatz","town":"Leipzig"},{"advanced":{"equipment":["Sandspielfläche","Spielwiese","Rodelhügel","Bänke","Parkmöglichkeit:","öffentliche Parkplätze vorhanden"],"gaming_devices":["Doppelschaukel","Klettergerüst","Streetballkorb","Federelement"]},"district":"Liebertwolkwitz,Südost","lat":51.2711771,"lines":"75","location":"Wiesengrund / Am Grabenweg","lon":12.4699251,"name":"Spielplatz 'Wiesengrund'","stops":"Haltestelle Störmthaler Straße","town":"Leipzig"},{"advanced":{"equipment":["Spielwiese","Schattenplätze","Bänke","Parkmöglichkeit:","Hinweis:","Die öffentlichen Parkplätze befinden sich außerhalb des Forstgebietes."],"gaming_devices":["Balanciersteg","Pendel","Holzkletterdach"]},"district":"Leutzsch,Alt-West","lat":51.3396955,"lines":"67, 80","location":"direkt im Forstgebiet 'Wilder Mann'","lon":12.3730747,"name":"Spielplatz 'Wilder Mann'","stops":"Haltestelle Mathiesenstraße), 80","town":"Leipzig"},{"advanced":{"equipment":["Holztisch mit Holzsitzen","Sandspielfläche","Spielwiese","Schattenplätze","Bänke","Parkmöglichkeit:","öffentliche Parkplätze vorhanden"],"gaming_devices":["Laufrolle","Reck"]},"district":"Connewitz,Süd","lat":51.3396955,"lines":"9, 107","location":"Kreuzung 'Die Neue Linie'im Wildpark","lon":12.3730747,"name":"Spielplatz 'Wildpark - Linienkreuz'","stops":"HaltestelleWildpark, Haltestelle Wildpark","town":"Leipzig"},{"advanced":{"equipment":["Sandspielfläche","Schattenplätze","Bänke","Parkmöglichkeit:","öffentliche Parkplätze vorhanden"],"gaming_devices":["Rutschturm","Karussell","Wippen","Schaukeln","Klettersprossen"]},"district":"Connewitz,Süd","lat":51.3396955,"lines":"9, 107","location":"Koburger Straße / im Wildpark","lon":12.3730747,"name":"Spielplatz 'Wildpark - Teehaus'","stops":"Haltestelle Wildpark, Haltestelle Wildpark","town":"Leipzig"},{"advanced":{"equipment":["Spielwiese","Schattenplätze","Bänke","Parkmöglichkeit:","öffentliche Parkplätze sind vorhanden"],"gaming_devices":["Kletteranlage","Rutsche","Wippe","Balanciersteg","Kletterfiguren"]},"district":"Connewitz,Süd","lat":51.3396955,"lines":"9, 107","location":"Koburger Straße / im Wildpark","lon":12.3730747,"name":"Spielplatz 'Wildpark - Märchenspielplatz'","stops":"Wildpark, Wildpark","town":"Leipzig"},{"advanced":{"equipment":["Sandspielfläche","Spielwiese","Schattenplätze","Bänke","Parkmöglichkeit:","öffentliche Parkplätze vorhanden"],"gaming_devices":["Seilbahn","Kletterhaus","Rutsche","Wippe","Balancierrolle","Streetballkorb"]},"district":"Connewitz,Süd","lat":51.3396955,"lines":"9, 107","location":"Koburger Straße / im Wildpark","lon":12.3730747,"name":"Spielplatz 'Wildpark - Waldsportplatz'","stops":"Haltestelle Wildpark, Haltestelle Wildpark","town":"Leipzig"},{"advanced":{"equipment":["Schattenplätze","Bänke","Parkmöglichkeit:","öffentliche Parkplätze vorhanden"],"gaming_devices":["Streetballkorb","Tischtennis"]},"district":"Lößnig,Süd","lat":51.29983360000001,"lines":"10, 16, 79","location":"Willi-Bredel-Straße / Hans-Marchwitza-Straße","lon":12.4007584,"name":"Spielplatz 'Willi-Bredel-Straße'","stops":"Haltestelle Lößnig, Haltestelle Moritz-Hof","town":"Leipzig"},{"advanced":{"equipment":["Spielwiese","Sitzgruppe","Parkmöglichkeit:","öffentliche Parkplätze vorhanden"],"gaming_devices":["Tischtennisplatte","Doppelschaukel","Rutsche"]},"district":"Seehausen,Nord","lat":51.4104465,"lines":"86","location":"Storchenweg","lon":12.4181237,"name":"Spielplatz 'Wohnpark Seehausen'","stops":"Haltestelle Gut Seehausen","town":"Leipzig"},{"advanced":{"equipment":["Schattenplätze","Spielwiese","Bänke","Parkmöglichkeit:","öffentliche Parkplätze vorhanden"],"gaming_devices":["Hangrutsche","Klettersteine"]},"district":"Wahren,Nordwest","lat":51.38013530000001,"lines":"87, 88","location":"Zeisigweg","lon":12.3317506,"name":"Spielplatz 'Zeisigplatz'","stops":"Haltestelle Zeisigweg","town":"Leipzig"},{"advanced":{"equipment":["Schattenplätze","Bänke","Sandspielfläche","Parkmöglichkeit:","öffentliche Parkplätze vorhanden"],"gaming_devices":["Seilbahn","Rutschen","Doppelschaukel","Wipptiere","Holzhäuser","Pendel","Wackelfloß","Balancierschiff"]},"district":"Lausen-Grünau,West","lat":51.3036103,"lines":"1, 61, 66, 80E, 161","location":"Zschochersche Allee","lon":12.2656362,"name":"Spielplatz 'Zschochersche Allee'","stops":"Haltestelle Zschampertaue, Haltestelle Zschampertaue","town":"Leipzig"},{"advanced":{"equipment":["Rodelhügel","Spielwiese","Bänke","Parkmöglichkeit:","öffentliche Parkplätze vorhanden"],"gaming_devices":["Seilbahn","Rutschen","Doppelschaukel","Wipptiere","Holzhäuser","Pendel","Wackelfloß","Balancierschiff"]},"district":"Grünau-Nord,West","lat":51.3191831,"lines":"15, 62, 65, 66","location":"Andromedaweg","lon":12.2704691,"name":"Spielplatz 'Zum Rodelhügel'","stops":"Haltestelle Plovdiver Straße, Haltestelle Plovdiver Straße","town":"Leipzig"},{"advanced":{"equipment":["Sandspielfläche","Schattenplätze","Bänke","Parkmöglichkeit:","öffentliche Parkplätze vorhanden"],"gaming_devices":["Kletternetz","Wippe"]},"district":"Böhlitz-Ehrenberg,Alt-West","lat":51.3619139,"lines":"7, 62","location":"Zur Sägemühle","lon":12.2906763,"name":"Spielplatz 'Zur Sägemühle'","stops":"Haltestelle Südstraße, Haltestelle Südstraße","town":"Leipzig"},{"advanced":{"equipment":["Schattenplätze","Bänke","Spielwiese","Parkmöglichkeit:","öffentliche Parkplätze vorhanden"],"gaming_devices":["Doppelschaukel","Rutsche","Kletternetz"]},"district":"Böhlitz-Ehrenberg,Alt-West","lat":51.3574366,"lines":"7","location":"Zusestraße","lon":12.3022363,"name":"Spielplatz 'Zusestraße'","stops":"Haltestelle Barneckerstraße","town":"Leipzig"},{"advanced":{"equipment":["Sandspielfläche","Bänke","Parkmöglichkeit:","öffentliche Parkplätze sind vorhanden"],"gaming_devices":["Doppelschaukel","Rutsche","Kletternetz"]},"district":"West,Schönau","lat":51.3185448,"lines":"65, 80E, 61, 66, 161, 8, 15","location":"Garskestraße/ Stuttgarter Allee","lon":12.2904345,"name":"Spielplatz 'Garskestraße'","stops":"Haltestelle Schönauer Ring, Haltestelle Schönauer Ring","town":"Leipzig"},{"advanced":{"equipment":["Sandspielfläche","Schattenplätze","Bänke","Spielwiese","Parkmöglichkeit:","öffentliche Parkplätze sind vorhanden"],"gaming_devices":["Tischtennisplatten"]},"district":"Süd,Connewitz","lat":51.3059788,"lines":"107, 9","location":"Leopoldstraße","lon":12.3773369,"name":"Spielplatz 'Leopoldstraße'","stops":"Haltestelle Mathildenstraße, Haltestelle Mathildenstraße","town":"Leipzig"},{"advanced":{"equipment":["Bänke","Parkmöglichkeit:","öffentliche Parkplätze sind vorhanden"],"gaming_devices":["Schaukel","Luftschaukel","Klettersteine"]},"district":"Südwest,Plagwitz","lat":51.3266241,"lines":"14, 60","location":"Naumburger Straße","lon":12.3286076,"name":"Spielplatz 'Plagwitzer Bahnhof'","stops":"Haltestelle S-Bahnhof Plagwitz), Haltestelle Naumburger Straße","town":"Leipzig"},{"advanced":{"equipment":["Spielwiese","Bänke","Findlinge","Parkmöglichkeit:","öffentliche Parkplätze vorhanden"],"gaming_devices":["Holzkarren","Schäfer und Schafe"]},"district":"Lößnig,Süd","lat":51.296411,"lines":"10, 16, 79","location":"Siegfriedstraße / im Park","lon":12.401118,"name":"Spielplatz 'An der Schäferei' im Erholungspark Lößnig-Dölitz","stops":"Haltestelle Lößnig, Haltestelle Moritz-Hof","town":"Leipzig"},{"advanced":{"equipment":["Sandspielfläche","Spielwiese","Bänke","Parkmöglichkeit:","öffentliche Parkplätze vorhanden"],"gaming_devices":["Kletterwürfel","Seilzug","Balancierhölzer"]},"district":"Lößnig,Süd","lat":51.297692,"lines":"10, 16, 79","location":"Siegfriedstraße / im Park","lon":12.40466,"name":"Spielplatz 'Fröbelplatz' im Erholungspark Lößnig-Dölitz","stops":"Haltestelle Lößnig, Haltestelle Moritz-Hof","town":"Leipzig"},{"advanced":{"equipment":["Rollstuhlzugang","Spielwiese","Bänke","Parkmöglichkeit:","öffentliche Parkplätze vorhanden"],"gaming_devices":["Kletterturm mit Rutsche","Seilgerüst","Hängematte","Kletterwand","Doppelschaukel"]},"district":"Lößnig,Süd","lat":51.298127,"lines":"10, 16, 79","location":"nördlich der Siegfriedstraße / im Park","lon":12.405846,"name":"Spielplatz 'Kletterplatz' im Erholungspark Lößnig-Dölitz","stops":"Haltestelle Lößnig, Haltestelle Moritz-Hof","town":"Leipzig"},{"advanced":{"equipment":["Spielwiese","Parkmöglichkeit:","öffentliche Parkplätze vorhanden"],"gaming_devices":["Kletterkugeln"]},"district":"Lößnig,Süd","lat":51.298487,"lines":"10, 16, 79","location":"nördlich der Siegfriedstraße / im Park","lon":12.40599,"name":"Spielplatz 'Kugelplatz' im Erholungspark Lößnig-Dölitz","stops":"Haltestelle Lößnig, Haltestelle Moritz-Hof","town":"Leipzig"},{"advanced":{"equipment":["Spielwiese","Bänke","Parkmöglichkeit:","öffentliche Parkplätze vorhanden"],"gaming_devices":["Rollerbahn"]},"district":"Lößnig,Süd","lat":51.294519,"lines":"10, 16, 79","location":"Zum Förderturm / im Park","lon":12.405472,"name":"Spielplatz 'Rollerbahn' im Erholungspark Lößnig-Dölitz","stops":"Haltestelle Lößnig, Haltestelle Moritz-Hof","town":"Leipzig"},{"advanced":{"equipment":["Bänke","Parkmöglichkeit:","öffentliche Parkplätze vorhanden"],"gaming_devices":["Tischtennisplatten"]},"district":"Lößnig,Süd","lat":51.297437,"lines":"10, 16, 79","location":"nördlich der Siegfriedstaße / im Park","lon":12.401811,"name":"Spielplatz 'Tischtennisplatz' im Erholungspark Lößnig-Dölitz","stops":"Haltestelle Lößnig, Haltestelle Moritz-Hof","town":"Leipzig"},{"advanced":{"equipment":["Bänke","Sandspielfläche","Parkmöglichkeit:","öffentliche Parkplätze vorhanden"],"gaming_devices":["Kletterhaus","Doppelschaukel","Doppelrutsche"]},"district":"Grünau-Mitte,West","lat":51.3396955,"lines":"61, 66, 80E, 161","location":"Karlsruher Straße / Alte Salzstraße","lon":12.3730747,"name":"Spielplatz Karlsruher Straße - Alte Salzstraße - 'Kletterplatz'","stops":"Haltestelle Alte Salzstraße","town":"Leipzig"},{"advanced":{"equipment":["Bänke","Spielwiese","Parkmöglichkeit:","öffentliche Parkplätze vorhanden"],"gaming_devices":["Karussell","Schaukelnest","Rutschhaus","Flüsterkugel"]},"district":"Grünau-Mitte,West","lat":51.3396955,"lines":"61, 80E, 161","location":"Karlsruher Straße / Alte Salzstraße","lon":12.3730747,"name":"Spielplatz Karlsruher Straße - Alte Salzstraße - ''Kleiner Kletterplatz'''","stops":"Haltestelle Karlsruher Straße","town":"Leipzig"},{"advanced":{"equipment":["Spielwiese","Bänke","Parkmöglichkeit:","öffentliche Parkplätze vorhanden"],"gaming_devices":["Raumkletternetz"]},"district":"Eutritzsch,Nord","lat":51.3684595,"lines":"12, 16, 85","location":"Kleiststraße / Gottschallstraße","lon":12.3787576,"name":"Spielplatz Kletterplatz im Arthur-Bretschneider-Park'","stops":"Haltestelle Gottschallstraße, Haltestelle Eutritzscher Markt, Haltestelle Gottschallstraße","town":"Leipzig"}]