{
    "version": 0.6,
    "generator": "Overpass API 0.7.62.1 084b4234",
    "osm3s": {
      "timestamp_osm_base": "2024-07-10T19:36:19Z",
      "timestamp_areas_base": "2024-07-10T16:54:56Z",
      "copyright": "The data included in this document is from www.openstreetmap.org. The data is made available under ODbL."
    },
    "elements": [
  
  {
    "type": "node",
    "id": 21633187,
    "lat": 51.3487732,
    "lon": 12.4792480,
    "tags": {
      "bus": "yes",
      "highway": "bus_stop",
      "name": "Paunsdorf-Center",
      "network": "Mitteldeutscher Verkehrsverbund",
      "network:short": "MDV",
      "network:wikidata": "Q1742463",
      "public_transport": "stop_position",
      "ref": "0091",
      "shelter": "no",
      "wheelchair": "yes"
    }
  },
  {
    "type": "node",
    "id": 24331103,
    "lat": 51.3785803,
    "lon": 12.4654399,
    "tags": {
      "bus": "yes",
      "fee_zone": "110",
      "highway": "bus_stop",
      "name": "Portitz, Teichsiedlung",
      "network": "Mitteldeutscher Verkehrsverbund",
      "operator": "Leipziger Verkehrsbetriebe",
      "public_transport": "stop_position",
      "ref": "0627",
      "shelter": "yes"
    }
  },
  {
    "type": "node",
    "id": 25390892,
    "lat": 51.3920928,
    "lon": 12.4550166,
    "tags": {
      "bus": "yes",
      "highway": "bus_stop",
      "name": "Plaußiger Dorfstraße",
      "network": "MDV",
      "public_transport": "stop_position",
      "ref_name": "Plaußig (Leipzig), Plaußiger Dorfstr."
    }
  },
  {
    "type": "node",
    "id": 25420031,
    "lat": 51.2988162,
    "lon": 12.3335143,
    "tags": {
      "bus": "yes",
      "highway": "bus_stop",
      "name": "Lauerscher Weg",
      "network": "MDV",
      "public_transport": "stop_position",
      "ref": "0263"
    }
  },
  {
    "type": "node",
    "id": 60671961,
    "lat": 51.3112523,
    "lon": 12.2798940,
    "tags": {
      "bus": "yes",
      "highway": "bus_stop",
      "name": "Ratzelbogen",
      "network": "Mitteldeutscher Verkehrsverbund",
      "network:short": "MDV",
      "network:wikidata": "Q1742463",
      "public_transport": "stop_position",
      "ref": "0218",
      "wheelchair": "limited"
    }
  },
  {
    "type": "node",
    "id": 98989884,
    "lat": 51.4002385,
    "lon": 12.4006112,
    "tags": {
      "bus": "yes",
      "highway": "bus_stop",
      "local_ref": "0698",
      "name": "Einfahrt Sachsenpark",
      "network": "MDV",
      "network:wikidata": "Q1742463",
      "network:wikipedia": "de:Mitteldeutscher Verkehrsverbund",
      "public_transport": "stop_position"
    }
  },
  {
    "type": "node",
    "id": 123900738,
    "lat": 51.3439179,
    "lon": 12.3801743,
    "tags": {
      "bus": "yes",
      "departures_board": "realtime",
      "description": "Hauptbahnhof, Steig D",
      "highway": "bus_stop",
      "local_ref": "D",
      "name": "Hauptbahnhof",
      "name:ja": "中央駅",
      "network": "Mitteldeutscher Verkehrsverbund",
      "network:short": "MDV",
      "network:wikidata": "Q1742463",
      "network:wikipedia": "de:Mitteldeutscher Verkehrsverbund",
      "operator": "LVB",
      "passenger_information_display": "yes",
      "public_transport": "stop_position",
      "railway": "tram_stop",
      "ref": "D",
      "toilets:wheelchair": "yes",
      "tram": "yes",
      "uic_ref": "956291",
      "wheelchair": "yes"
    }
  },
  {
    "type": "node",
    "id": 145912346,
    "lat": 51.3986442,
    "lon": 12.3408217,
    "tags": {
      "bus": "yes",
      "highway": "bus_stop",
      "name": "Lindenallee",
      "network": "Mitteldeutscher Verkehrsverbund",
      "network:short": "MDV",
      "network:wikidata": "Q1742463",
      "public_transport": "stop_position",
      "ref": "0740",
      "route_ref": "88"
    }
  },
  {
    "type": "node",
    "id": 240488708,
    "lat": 51.3597638,
    "lon": 12.4430674,
    "tags": {
      "bus": "yes",
      "highway": "bus_stop",
      "name": "Hohentichelnstraße",
      "network": "Mitteldeutscher Verkehrsverbund",
      "network:short": "MDV",
      "network:wikidata": "Q1742463",
      "operator": "Leipziger Verkehrsbetriebe GmbH",
      "public_transport": "stop_position",
      "ref": "0066"
    }
  },
  {
    "type": "node",
    "id": 246759305,
    "lat": 51.3445309,
    "lon": 12.4450686,
    "tags": {
      "bus": "yes",
      "highway": "bus_stop",
      "name": "Bahnhof Paunsdorf",
      "network": "MDV",
      "network:wikidata": "Q1742463",
      "network:wikipedia": "de:Mitteldeutscher Verkehrsverbund",
      "public_transport": "stop_position",
      "ref": "0525",
      "wheelchair": "yes"
    }
  },
  {
    "type": "node",
    "id": 250566452,
    "lat": 51.3115521,
    "lon": 12.2819565,
    "tags": {
      "bus": "yes",
      "highway": "bus_stop",
      "name": "Ratzelbogen",
      "network": "MDV",
      "public_transport": "stop_position",
      "railway": "tram_stop",
      "ref": "0218",
      "tram": "yes",
      "wheelchair": "yes"
    }
  },
  {
    "type": "node",
    "id": 251009612,
    "lat": 51.3203206,
    "lon": 12.3296178,
    "tags": {
      "bus": "yes",
      "highway": "bus_stop",
      "name": "Adler",
      "network": "MDV",
      "public_transport": "stop_position",
      "railway": "tram_stop",
      "ref": "0211",
      "tram": "yes",
      "wheelchair": "yes"
    }
  },
  {
    "type": "node",
    "id": 251433647,
    "lat": 51.3073029,
    "lon": 12.3226910,
    "tags": {
      "bus": "yes",
      "highway": "bus_stop",
      "name": "Martin-Herrmann-Straße",
      "network": "MDV",
      "public_transport": "stop_position",
      "ref": "0691",
      "route_ref": "61"
    }
  },
  {
    "type": "node",
    "id": 251435222,
    "lat": 51.2989185,
    "lon": 12.2881690,
    "tags": {
      "bus": "yes",
      "highway": "bus_stop",
      "name": "Raiffeisenstraße",
      "network": "MDV",
      "public_transport": "stop_position",
      "ref": "0641",
      "route_ref": "61"
    }
  },
  {
    "type": "node",
    "id": 254992462,
    "lat": 51.3698870,
    "lon": 12.3147883,
    "tags": {
      "bus": "yes",
      "highway": "bus_stop",
      "name": "Auensee",
      "network": "MDV",
      "operator": "LVB",
      "public_transport": "stop_position",
      "ref": "0601",
      "tactile_paving": "yes"
    }
  },
  {
    "type": "node",
    "id": 265597016,
    "lat": 51.3033981,
    "lon": 12.4001451,
    "tags": {
      "bus": "yes",
      "highway": "bus_stop",
      "name": "Probstheidaer/Willi-Bredel-Straße",
      "network": "Mitteldeutscher Verkehrsverbund",
      "network:short": "MDV",
      "network:wikidata": "Q1742463",
      "operator": "LVB",
      "public_transport": "stop_position",
      "ref": "0136"
    }
  },
  {
    "type": "node",
    "id": 266651186,
    "lat": 51.2725424,
    "lon": 12.2759191,
    "tags": {
      "bus": "yes",
      "highway": "bus_stop",
      "name": "Rehbach",
      "network": "Mitteldeutscher Verkehrsverbund",
      "network:short": "MDV",
      "network:wikidata": "Q1742463",
      "public_transport": "stop_position",
      "ref": "0262",
      "wheelchair": "yes"
    }
  },
  {
    "type": "node",
    "id": 266651187,
    "lat": 51.2789570,
    "lon": 12.3119677,
    "tags": {
      "bus": "yes",
      "highway": "bus_stop",
      "name": "Seumestraße",
      "network": "MDV",
      "note": "nur an Schultagen",
      "public_transport": "stop_position",
      "ref": "1103",
      "route_ref": "120"
    }
  },
  {
    "type": "node",
    "id": 269064975,
    "lat": 51.2629656,
    "lon": 12.2919694,
    "tags": {
      "bus": "yes",
      "highway": "bus_stop",
      "name": "Abzweig nach Hartmannsdorf",
      "network": "MDV",
      "public_transport": "stop_position",
      "ref": "1112"
    }
  },
  {
    "type": "node",
    "id": 269488942,
    "lat": 51.3039555,
    "lon": 12.2686558,
    "tags": {
      "bus": "yes",
      "highway": "bus_stop",
      "name": "Lausen, Ärztehaus",
      "network": "MDV",
      "public_transport": "stop_position",
      "ref": "0631"
    }
  },
  {
    "type": "node",
    "id": 276287858,
    "lat": 51.3413986,
    "lon": 12.3241605,
    "tags": {
      "bus": "yes",
      "highway": "bus_stop",
      "name": "Wielandstraße",
      "network": "Mitteldeutscher Verkehrsverbund",
      "network:short": "MDV",
      "network:wikidata": "Q1742463",
      "public_transport": "stop_position",
      "ref": "0311"
    }
  },
  {
    "type": "node",
    "id": 282843731,
    "lat": 51.3940415,
    "lon": 12.2927901,
    "tags": {
      "bus": "yes",
      "highway": "bus_stop",
      "name": "GVZ Süd, Am Exer",
      "operator": "LVB",
      "public_transport": "stop_position",
      "ref_name": "Leipzig, GVZ Süd/Am Exer"
    }
  },
  {
    "type": "node",
    "id": 294925786,
    "lat": 51.3859456,
    "lon": 12.3312076,
    "tags": {
      "bus": "yes",
      "highway": "bus_stop",
      "name": "Äußerer Zeisigweg",
      "network": "Mitteldeutscher Verkehrsverbund",
      "network:short": "MDV",
      "network:wikidata": "Q1742463",
      "public_transport": "stop_position",
      "shelter": "no"
    }
  },
  {
    "type": "node",
    "id": 303800501,
    "lat": 51.3258418,
    "lon": 12.4529677,
    "tags": {
      "bus": "yes",
      "highway": "bus_stop",
      "name": "Gottschalkstraße",
      "network": "MDV",
      "operator": "LVB",
      "public_transport": "stop_position",
      "ref": "0751"
    }
  },
  {
    "type": "node",
    "id": 303802653,
    "lat": 51.3253344,
    "lon": 12.4528980,
    "tags": {
      "bus": "yes",
      "highway": "bus_stop",
      "name": "Mölkau-Süd",
      "network": "MDV",
      "public_transport": "stop_position",
      "ref": "0720"
    }
  },
  {
    "type": "node",
    "id": 309893709,
    "lat": 51.3245607,
    "lon": 12.2628945,
    "tags": {
      "bus": "yes",
      "highway": "bus_stop",
      "name": "Miltitz",
      "network": "MDV",
      "operator": "LVB",
      "public_transport": "stop_position",
      "ref": "0302"
    }
  },
  {
    "type": "node",
    "id": 313582802,
    "lat": 51.4211908,
    "lon": 12.4768219,
    "tags": {
      "bus": "yes",
      "highway": "bus_stop",
      "name": "Gottscheina, Siedlung",
      "public_transport": "stop_position"
    }
  },
  {
    "type": "node",
    "id": 318384754,
    "lat": 51.2765099,
    "lon": 12.4696451,
    "tags": {
      "bus": "yes",
      "highway": "bus_stop",
      "name": "Liebertwolkwitz, Störmthaler Straße",
      "network": "Mitteldeutscher Verkehrsverbund",
      "network:short": "MDV",
      "network:wikidata": "Q1742463",
      "public_transport": "stop_position",
      "ref": "0874",
      "route_ref": "171"
    }
  },
  {
    "type": "node",
    "id": 329182866,
    "lat": 51.3434099,
    "lon": 12.2941117,
    "tags": {
      "bus": "yes",
      "highway": "bus_stop",
      "name": "Rückmarsdorf, Zur Kaninchenfarm",
      "network": "Mitteldeutscher Verkehrsverbund",
      "network:short": "MDV",
      "network:wikidata": "Q1742463",
      "public_transport": "stop_position",
      "ref": "1006",
      "source:name": "survey",
      "source:ref": "survey"
    }
  },
  {
    "type": "node",
    "id": 329183373,
    "lat": 51.3426923,
    "lon": 12.3009995,
    "tags": {
      "bus": "yes",
      "highway": "bus_stop",
      "name": "Merseburger/Schomburgkstraße",
      "network": "Mitteldeutscher Verkehrsverbund",
      "network:short": "MDV",
      "network:wikidata": "Q1742463",
      "operator": "Leipziger Verkehrsbetriebe",
      "public_transport": "stop_position",
      "ref": "0597",
      "shelter": "yes",
      "wheelchair": "no"
    }
  },
  {
    "type": "node",
    "id": 333173827,
    "lat": 51.2559597,
    "lon": 12.2811201,
    "tags": {
      "bus": "yes",
      "highway": "bus_stop",
      "name": "Knautnaundorf, Gewerbegebiet 2",
      "network": "MDV",
      "public_transport": "stop_position",
      "ref": "1113"
    }
  },
  {
    "type": "node",
    "id": 336485539,
    "lat": 51.3460051,
    "lon": 12.3146923,
    "tags": {
      "bus": "yes",
      "highway": "bus_stop",
      "name": "Weinbergstraße",
      "network": "Mitteldeutscher Verkehrsverbund",
      "network:short": "MDV",
      "network:wikidata": "Q1742463",
      "public_transport": "stop_position"
    }
  },
  {
    "type": "node",
    "id": 350551586,
    "lat": 51.3942357,
    "lon": 12.3848865,
    "tags": {
      "bench": "no",
      "bin": "no",
      "bus": "yes",
      "description": "SEV-Haltestelle",
      "highway": "bus_stop",
      "name": "Georg-Herwegh-Straße",
      "network": "Mitteldeutscher Verkehrsverbund",
      "network:wikidata": "Q1742463",
      "network:wikipedia": "de:Mitteldeutscher Verkehrsverbund",
      "operator": "Leipziger Verkehrsbetriebe",
      "public_transport": "platform",
      "route_ref": "SEV",
      "shelter": "no",
      "tactile_paving": "no",
      "wheelchair": "no"
    }
  },
  {
    "type": "node",
    "id": 350551588,
    "lat": 51.3918624,
    "lon": 12.3768133,
    "tags": {
      "bench": "no",
      "bin": "no",
      "bus": "yes",
      "description": "SEV-Haltestelle",
      "highway": "bus_stop",
      "lit": "yes",
      "name": "Wiederitzsch-Mitte",
      "network": "Mitteldeutscher Verkehrsverbund",
      "network:wikidata": "Q1742463",
      "operator": "Leipziger Verkehrsbetriebe",
      "public_transport": "platform",
      "route_ref": "SEV",
      "shelter": "no",
      "tactile_paving": "no",
      "wheelchair": "no"
    }
  },
  {
    "type": "node",
    "id": 350551591,
    "lat": 51.3904330,
    "lon": 12.3768126,
    "tags": {
      "bench": "yes",
      "bus": "yes",
      "highway": "bus_stop",
      "name": "Dachauer Straße",
      "network": "Mitteldeutscher Verkehrsverbund",
      "network:wikidata": "Q1742463",
      "operator": "Leipziger Verkehrsbetriebe",
      "passenger_information_display": "no",
      "public_transport": "platform",
      "shelter": "yes",
      "tactile_paving": "yes",
      "wheelchair": "yes"
    }
  },
  {
    "type": "node",
    "id": 350551594,
    "lat": 51.3898006,
    "lon": 12.3772586,
    "tags": {
      "bench": "no",
      "bin": "no",
      "bus": "yes",
      "description": "SEV-Haltestelle",
      "highway": "bus_stop",
      "lit": "yes",
      "name": "Dachauer Straße",
      "network": "Mitteldeutscher Verkehrsverbund",
      "network:wikidata": "Q1742463",
      "operator": "Leipziger Verkehrsbetriebe",
      "public_transport": "platform",
      "route_ref": "SEV",
      "shelter": "no",
      "tactile_paving": "no",
      "wheelchair": "no"
    }
  },
  {
    "type": "node",
    "id": 350551595,
    "lat": 51.3899515,
    "lon": 12.3775511,
    "tags": {
      "bench": "no",
      "bin": "yes",
      "bus": "yes",
      "description": "SEV-Haltestelle",
      "highway": "bus_stop",
      "lit": "yes",
      "name": "Dachauer Straße",
      "network": "Mitteldeutscher Verkehrsverbund",
      "network:wikidata": "Q1742463",
      "operator": "Leipziger Verkehrsbetriebe",
      "public_transport": "platform",
      "route_ref": "SEV",
      "shelter": "no",
      "tactile_paving": "no",
      "wheelchair": "no"
    }
  },
  {
    "type": "node",
    "id": 350551601,
    "lat": 51.3959599,
    "lon": 12.3710917,
    "tags": {
      "bus": "yes",
      "highway": "bus_stop",
      "name": "Wiederitzscher Landstraße",
      "network": "MDV",
      "network:wikidata": "Q1742463",
      "public_transport": "stop_position",
      "ref": "0758"
    }
  },
  {
    "type": "node",
    "id": 350566078,
    "lat": 51.4002756,
    "lon": 12.4006280,
    "tags": {
      "bench": "no",
      "bin": "yes",
      "bus": "yes",
      "highway": "bus_stop",
      "lit": "yes",
      "local_ref": "0698",
      "name": "Einfahrt Sachsenpark",
      "network": "MDV",
      "network:wikidata": "Q1742463",
      "network:wikipedia": "de:Mitteldeutscher Verkehrsverbund",
      "public_transport": "platform",
      "shelter": "no",
      "tactile_paving": "no"
    }
  },
  {
    "type": "node",
    "id": 350566080,
    "lat": 51.4022453,
    "lon": 12.3921259,
    "tags": {
      "bench": "no",
      "bin": "no",
      "bus": "yes",
      "highway": "bus_stop",
      "lit": "no",
      "name": "Pelzgasse",
      "public_transport": "platform",
      "ref": "0707",
      "shelter": "no",
      "tactile_paving": "no"
    }
  },
  {
    "type": "node",
    "id": 353183123,
    "lat": 51.3917693,
    "lon": 12.3769406,
    "tags": {
      "bench": "no",
      "bin": "no",
      "bus": "yes",
      "description": "SEV-Haltestelle",
      "highway": "bus_stop",
      "lit": "yes",
      "name": "Wiederitzsch-Mitte",
      "network": "Mitteldeutscher Verkehrsverbund",
      "network:wikidata": "Q1742463",
      "operator": "Leipziger Verkehrsbetriebe",
      "public_transport": "platform",
      "route_ref": "SEV",
      "shelter": "no",
      "tactile_paving": "no",
      "wheelchair": "no"
    }
  },
  {
    "type": "node",
    "id": 355352848,
    "lat": 51.3677019,
    "lon": 12.4607746,
    "tags": {
      "bench": "yes",
      "bin": "yes",
      "bus": "yes",
      "departures_board": "timetable",
      "highway": "bus_stop",
      "kerb": "raised",
      "kerb:approach_aid": "no",
      "lit": "yes",
      "local_ref": "0057",
      "name": "Portitzer Allee, S-Bahnhof Heiterblick",
      "network": "Mitteldeutscher Verkehrsverbund",
      "network:short": "MDV",
      "network:wikidata": "Q1742463",
      "operator": "Leipziger Verkehrsbetriebe",
      "passenger_information_display": "no",
      "public_transport": "platform",
      "ref": "0057",
      "shelter": "no",
      "tactile_paving": "yes",
      "wheelchair": "no"
    }
  },
  {
    "type": "node",
    "id": 355359070,
    "lat": 51.3464437,
    "lon": 12.5193100,
    "tags": {
      "bench": "no",
      "bin": "no",
      "bus": "yes",
      "highway": "bus_stop",
      "lit": "no",
      "name": "Althen, Oertgering",
      "network": "Mitteldeutscher Verkehrsverbund",
      "network:short": "MDV",
      "network:wikidata": "Q1742463",
      "public_transport": "platform",
      "shelter": "no",
      "tactile_paving": "no",
      "wheelchair": "limited"
    }
  },
  {
    "type": "node",
    "id": 355359073,
    "lat": 51.3393191,
    "lon": 12.5195091,
    "tags": {
      "bench": "yes",
      "bin": "yes",
      "bus": "yes",
      "highway": "bus_stop",
      "lit": "no",
      "name": "Althener Anger",
      "network": "Mitteldeutscher Verkehrsverbund",
      "network:short": "MDV",
      "network:wikidata": "Q1742463",
      "passenger_information_display": "no",
      "public_transport": "platform",
      "shelter": "yes",
      "tactile_paving": "yes"
    }
  },
  {
    "type": "node",
    "id": 355359074,
    "lat": 51.3393142,
    "lon": 12.5192846,
    "tags": {
      "bench": "no",
      "bin": "no",
      "bus": "yes",
      "highway": "bus_stop",
      "name": "Althener Anger",
      "network": "Mitteldeutscher Verkehrsverbund",
      "network:short": "MDV",
      "network:wikidata": "Q1742463",
      "passenger_information_display": "no",
      "public_transport": "platform",
      "shelter": "no"
    }
  },
  {
    "type": "node",
    "id": 355359075,
    "lat": 51.3397427,
    "lon": 12.5226506,
    "tags": {
      "bench": "no",
      "bus": "yes",
      "highway": "bus_stop",
      "name": "Freundschaftsring",
      "network": "Mitteldeutscher Verkehrsverbund",
      "network:short": "MDV",
      "network:wikidata": "Q1742463",
      "passenger_information_display": "no",
      "public_transport": "platform",
      "shelter": "no"
    }
  },
  {
    "type": "node",
    "id": 355359076,
    "lat": 51.3397092,
    "lon": 12.5228603,
    "tags": {
      "bench": "no",
      "bus": "yes",
      "highway": "bus_stop",
      "name": "Freundschaftsring",
      "network": "Mitteldeutscher Verkehrsverbund",
      "network:short": "MDV",
      "network:wikidata": "Q1742463",
      "passenger_information_display": "no",
      "public_transport": "platform",
      "shelter": "no"
    }
  },
  {
    "type": "node",
    "id": 368194573,
    "lat": 51.3327104,
    "lon": 12.4564065,
    "tags": {
      "bus": "yes",
      "highway": "bus_stop",
      "name": "Am Bahndamm",
      "network": "Mitteldeutscher Verkehrsverbund",
      "network:short": "MDV",
      "network:wikidata": "Q1742463",
      "operator": "Leipziger Verkehrsbetriebe GmbH",
      "public_transport": "stop_position",
      "ref": "0746",
      "route_ref": "72",
      "wheelchair": "no"
    }
  },
  {
    "type": "node",
    "id": 371043619,
    "lat": 51.3376372,
    "lon": 12.4758827,
    "tags": {
      "bus": "yes",
      "highway": "bus_stop",
      "name": "Arthur-Winkler-Straße",
      "network": "Mitteldeutscher Verkehrsverbund",
      "network:short": "MDV",
      "network:wikidata": "Q1742463",
      "public_transport": "stop_position",
      "ref": "0690",
      "route_ref": "N7, 72",
      "shelter": "no",
      "wheelchair": "limited"
    }
  },
  {
    "type": "node",
    "id": 378253073,
    "lat": 51.3443340,
    "lon": 12.2547816,
    "tags": {
      "bus": "yes",
      "highway": "bus_stop",
      "name": "Rückmarsdorf, Friedhof",
      "network": "MDV",
      "public_transport": "stop_position",
      "ref": "1023",
      "route_ref": "129",
      "source": "survey"
    }
  },
  {
    "type": "node",
    "id": 383742358,
    "lat": 51.3201493,
    "lon": 12.3785691,
    "tags": {
      "bench": "yes",
      "bin": "yes",
      "bus": "yes",
      "highway": "bus_stop",
      "lit": "yes",
      "name": "Kurt-Eisner-/Arthur-Hoffmann-Straße",
      "network": "Mitteldeutscher Verkehrsverbund",
      "network:short": "MDV",
      "network:wikidata": "Q1742463",
      "operator": "Leipziger Verkehrsbetriebe",
      "public_transport": "platform",
      "ref": "0151",
      "route_ref": "412, N9",
      "shelter": "yes",
      "tactile_paving": "no",
      "tram": "yes",
      "wheelchair": "no"
    }
  },
  {
    "type": "node",
    "id": 387774145,
    "lat": 51.3511330,
    "lon": 12.4468013,
    "tags": {
      "bench": "no",
      "bin": "no",
      "bus": "yes",
      "fee_zone": "110",
      "highway": "bus_stop",
      "kerb": "raised",
      "kerb:approach_aid": "no",
      "lit": "yes",
      "local_ref": "0524",
      "name": "Permoser-/Hohentichelnstraße",
      "network": "Mitteldeutscher Verkehrsverbund",
      "network:short": "MDV",
      "network:wikidata": "Q1742463",
      "network:wikipedia": "de:Mitteldeutscher Verkehrsverbund",
      "operator": "LVB GmbH",
      "passenger_information_display": "no",
      "public_transport": "platform",
      "shelter": "no",
      "tactile_paving": "yes"
    }
  },
  {
    "type": "node",
    "id": 390869477,
    "lat": 51.3828626,
    "lon": 12.4632713,
    "tags": {
      "bench": "no",
      "bus": "yes",
      "fee_zone": "110",
      "highway": "bus_stop",
      "local_ref": "0625",
      "name": "Krätzbergstraße",
      "network": "MDV",
      "public_transport": "platform",
      "shelter": "no",
      "tactile_paving": "yes"
    }
  },
  {
    "type": "node",
    "id": 390869478,
    "lat": 51.3831123,
    "lon": 12.4633434,
    "tags": {
      "bench": "no",
      "bus": "yes",
      "fee_zone": "110",
      "highway": "bus_stop",
      "local_ref": "0625",
      "name": "Krätzbergstraße",
      "network": "MDV",
      "public_transport": "platform",
      "shelter": "no",
      "tactile_paving": "yes"
    }
  },
  {
    "type": "node",
    "id": 390869479,
    "lat": 51.3832291,
    "lon": 12.4637469,
    "tags": {
      "bench": "no",
      "bus": "yes",
      "fee_zone": "110",
      "highway": "bus_stop",
      "local_ref": "0625",
      "name": "Krätzbergstraße",
      "network": "MDV",
      "public_transport": "platform",
      "shelter": "no",
      "tactile_paving": "yes"
    }
  },
  {
    "type": "node",
    "id": 390869480,
    "lat": 51.3834199,
    "lon": 12.4622194,
    "tags": {
      "bus": "yes",
      "fee_zone": "110",
      "highway": "bus_stop",
      "local_ref": "0625",
      "name": "Krätzbergstraße",
      "network": "MDV",
      "public_transport": "platform",
      "shelter": "yes",
      "tactile_paving": "no"
    }
  },
  {
    "type": "node",
    "id": 390871984,
    "lat": 51.3837647,
    "lon": 12.4529813,
    "tags": {
      "bench": "no",
      "bus": "yes",
      "fee_zone": "110",
      "highway": "bus_stop",
      "local_ref": "0624",
      "name": "Am langen Teiche",
      "network": "MDV",
      "public_transport": "platform",
      "shelter": "no",
      "tactile_paving": "no"
    }
  },
  {
    "type": "node",
    "id": 390871985,
    "lat": 51.3839500,
    "lon": 12.4546600,
    "tags": {
      "bench": "no",
      "bus": "yes",
      "fee_zone": "110",
      "highway": "bus_stop",
      "local_ref": "0624",
      "name": "Am langen Teiche",
      "network": "MDV",
      "public_transport": "platform",
      "shelter": "no",
      "tactile_paving": "no"
    }
  },
  {
    "type": "node",
    "id": 390874781,
    "lat": 51.3559123,
    "lon": 12.4442669,
    "tags": {
      "bus": "yes",
      "check_date:shelter": "2023-10-26",
      "fee_zone": "110",
      "highway": "bus_stop",
      "local_ref": "0523",
      "name": "Paunsdorf, Friedhof",
      "network": "MDV",
      "public_transport": "platform",
      "shelter": "no"
    }
  },
  {
    "type": "node",
    "id": 411131994,
    "lat": 51.3015894,
    "lon": 12.2610354,
    "tags": {
      "bus": "yes",
      "highway": "bus_stop",
      "name": "Am Sonneneck",
      "network": "MDV",
      "operator": "LVB",
      "public_transport": "stop_position",
      "ref": "0647"
    }
  },
  {
    "type": "node",
    "id": 415947919,
    "lat": 51.3317841,
    "lon": 12.4061093,
    "tags": {
      "bench": "no",
      "bin": "yes",
      "bus": "yes",
      "departures_board": "timetable",
      "highway": "bus_stop",
      "lit": "yes",
      "name": "Riebeck-/Oststraße",
      "network": "Mitteldeutscher Verkehrsverbund",
      "network:short": "MDV",
      "network:wikidata": "Q1742463",
      "passenger_information_display": "no",
      "public_transport": "platform",
      "ref": "0104",
      "shelter": "no",
      "tactile_paving": "no",
      "wheelchair": "yes"
    }
  },
  {
    "type": "node",
    "id": 415947929,
    "lat": 51.3317898,
    "lon": 12.4054905,
    "tags": {
      "bench": "no",
      "bin": "yes",
      "bus": "yes",
      "departures_board": "timetable",
      "highway": "bus_stop",
      "lit": "no",
      "name": "Riebeck-/Oststraße",
      "network": "Mitteldeutscher Verkehrsverbund",
      "network:short": "MDV",
      "network:wikidata": "Q1742463",
      "public_transport": "platform",
      "ref": "0104",
      "shelter": "no",
      "tactile_paving": "no",
      "wheelchair": "no"
    }
  },
  {
    "type": "node",
    "id": 420677264,
    "lat": 51.3672002,
    "lon": 12.3678397,
    "tags": {
      "bus": "yes",
      "highway": "bus_stop",
      "name": "S-Bahnhof Coppiplatz",
      "network": "MDV",
      "public_transport": "stop_position",
      "ref": "0341",
      "wheelchair": "yes"
    }
  },
  {
    "type": "node",
    "id": 436160033,
    "lat": 51.2969407,
    "lon": 12.2893031,
    "tags": {
      "bus": "yes",
      "highway": "bus_stop",
      "name": "Siedlung Florian Geyer",
      "network": "MDV",
      "public_transport": "stop_position",
      "ref": "0642",
      "route_ref": "61",
      "wheelchair": "no"
    }
  },
  {
    "type": "node",
    "id": 441148808,
    "lat": 51.3456193,
    "lon": 12.2692025,
    "tags": {
      "bus": "yes",
      "highway": "bus_stop",
      "name": "Rückmarsdorf, Löwencenter",
      "network": "Mitteldeutscher Verkehrsverbund",
      "network:short": "MDV",
      "network:wikidata": "Q1742463",
      "public_transport": "stop_position",
      "ref": "1008",
      "source:name": "survey",
      "source:ref": "survey"
    }
  },
  {
    "type": "node",
    "id": 441148828,
    "lat": 51.3455822,
    "lon": 12.2697448,
    "tags": {
      "bus": "yes",
      "highway": "bus_stop",
      "name": "Rückmarsdorf, Löwencenter",
      "network": "Mitteldeutscher Verkehrsverbund",
      "network:short": "MDV",
      "network:wikidata": "Q1742463",
      "public_transport": "stop_position",
      "ref": "1008",
      "source:name": "survey",
      "source:ref": "survey"
    }
  },
  {
    "type": "node",
    "id": 446284600,
    "lat": 51.3230261,
    "lon": 12.5260015,
    "tags": {
      "bus": "yes",
      "highway": "bus_stop",
      "name": "Hirschfeld",
      "network": "MDV",
      "public_transport": "stop_position"
    }
  },
  {
    "type": "node",
    "id": 446284601,
    "lat": 51.3449427,
    "lon": 12.5194993,
    "tags": {
      "bench": "yes",
      "bin": "yes",
      "bus": "yes",
      "check_date:shelter": "2022-09-23",
      "highway": "bus_stop",
      "lit": "yes",
      "name": "Althen, Oertgering",
      "network": "Mitteldeutscher Verkehrsverbund",
      "network:short": "MDV",
      "network:wikidata": "Q1742463",
      "passenger_information_display": "no",
      "public_transport": "platform",
      "shelter": "yes",
      "tactile_paving": "no",
      "wheelchair": "yes"
    }
  },
  {
    "type": "node",
    "id": 497089914,
    "lat": 51.4196990,
    "lon": 12.4222588,
    "tags": {
      "bus": "yes",
      "highway": "bus_stop",
      "name": "Göbschelwitz",
      "network": "MDV",
      "public_transport": "platform",
      "shelter": "yes"
    }
  },
  {
    "type": "node",
    "id": 544976999,
    "lat": 51.3118963,
    "lon": 12.2596513,
    "tags": {
      "bus": "yes",
      "highway": "bus_stop",
      "name": "Binzer Straße",
      "network": "MDV",
      "operator": "LVB",
      "public_transport": "stop_position",
      "ref": "0978"
    }
  },
  {
    "type": "node",
    "id": 619586388,
    "lat": 51.3117832,
    "lon": 12.3733603,
    "tags": {
      "bus": "yes",
      "highway": "bus_stop",
      "name": "Connewitzer Kreuz",
      "network": "Mitteldeutscher Verkehrsverbund",
      "network:short": "MDV",
      "network:wikidata": "Q1742463",
      "public_transport": "stop_position",
      "ref": "0172",
      "wheelchair": "limited"
    }
  },
  {
    "type": "node",
    "id": 628655043,
    "lat": 51.3210655,
    "lon": 12.3783930,
    "tags": {
      "bench": "yes",
      "bin": "yes",
      "bus": "yes",
      "highway": "bus_stop",
      "lit": "yes",
      "name": "Kurt-Eisner-/Arthur-Hoffmann-Straße",
      "network": "Mitteldeutscher Verkehrsverbund",
      "network:short": "MDV",
      "network:wikidata": "Q1742463",
      "operator": "Leipziger Verkehrsbetriebe",
      "public_transport": "platform",
      "ref": "0151",
      "shelter": "yes",
      "tactile_paving": "no",
      "wheelchair": "no"
    }
  },
  {
    "type": "node",
    "id": 681287401,
    "lat": 51.3383346,
    "lon": 12.4038887,
    "tags": {
      "bench": "yes",
      "bin": "yes",
      "bus": "yes",
      "departures_board": "yes",
      "highway": "bus_stop",
      "lit": "yes",
      "name": "Reudnitz, Koehlerstraße",
      "network": "Mitteldeutscher Verkehrsverbund",
      "network:wikidata": "Q1742463",
      "operator": "Leipziger Verkehrsbetriebe",
      "passenger_information_display": "yes",
      "passenger_information_display:speech_output": "no",
      "public_transport": "platform",
      "ref": "0072",
      "shelter": "yes",
      "tactile_paving": "no",
      "tram": "yes",
      "wheelchair": "no"
    }
  },
  {
    "type": "node",
    "id": 722502815,
    "lat": 51.3969187,
    "lon": 12.3962778,
    "tags": {
      "bus": "yes",
      "description": "Auch Fernbushaltestelle für Flixbus",
      "highway": "bus_stop",
      "local_ref": "A",
      "name": "Messegelände",
      "network": "MDV",
      "network:wikidata": "Q1742463",
      "network:wikipedia": "de:Mitteldeutscher Verkehrsverbund",
      "public_transport": "stop_position",
      "wheelchair": "yes"
    }
  },
  {
    "type": "node",
    "id": 726608570,
    "lat": 51.3015551,
    "lon": 12.2658939,
    "tags": {
      "bench": "yes",
      "bus": "yes",
      "highway": "bus_stop",
      "name": "Lausen, Regenbogen",
      "public_transport": "platform",
      "shelter": "yes"
    }
  },
  {
    "type": "node",
    "id": 857693309,
    "lat": 51.3394647,
    "lon": 12.3713367,
    "tags": {
      "bench": "yes",
      "bin": "yes",
      "bus": "yes",
      "highway": "bus_stop",
      "kerb": "flush",
      "lit": "yes",
      "name": "Thomaskirche",
      "network": "MDV",
      "network:wikidata": "Q1742463",
      "operator": "LVB",
      "passenger_information_display": "yes",
      "passenger_information_display:speech_output": "no",
      "public_transport": "platform",
      "ref": "0004",
      "shelter": "yes",
      "tactile_paving": "no",
      "tram": "yes",
      "wheelchair": "yes"
    }
  },
  {
    "type": "node",
    "id": 880386661,
    "lat": 51.3555562,
    "lon": 12.4342701,
    "tags": {
      "bus": "yes",
      "highway": "bus_stop",
      "name": "Bautzner Straße",
      "network": "MDV",
      "public_transport": "stop_position",
      "ref": "0053",
      "wheelchair": "limited"
    }
  },
  {
    "type": "node",
    "id": 900882116,
    "lat": 51.4189198,
    "lon": 12.4217186,
    "tags": {
      "bus": "yes",
      "highway": "bus_stop",
      "name": "Göbschelwitz",
      "network": "MDV",
      "public_transport": "platform",
      "shelter": "yes"
    }
  },
  {
    "type": "node",
    "id": 935328719,
    "lat": 51.3007691,
    "lon": 12.3132872,
    "tags": {
      "bench": "no",
      "bin": "yes",
      "bus": "yes",
      "highway": "bus_stop",
      "kerb": "raised",
      "kerb:approach_aid": "no",
      "lit": "yes",
      "name": "Wasserturmweg",
      "network": "Mitteldeutscher Verkehrsverbund",
      "operator": "Leipziger Verkehrsbetriebe",
      "passenger_information_display": "no",
      "public_transport": "platform",
      "route_ref": "65;162",
      "shelter": "no",
      "tactile_paving": "no",
      "wheelchair": "no"
    }
  },
  {
    "type": "node",
    "id": 938727062,
    "lat": 51.3437664,
    "lon": 12.4276532,
    "tags": {
      "bench": "yes",
      "bin": "yes",
      "bus": "yes",
      "departures_board": "yes",
      "highway": "bus_stop",
      "lit": "yes",
      "name": "Sellerhausen, Emmausstraße",
      "network": "Mitteldeutscher Verkehrsverbund",
      "network:short": "MDV",
      "network:wikidata": "Q1742463",
      "operator": "Leipziger Verkehrsbetriebe",
      "passenger_information_display": "no",
      "public_transport": "platform",
      "railway": "platform",
      "ref": "0079",
      "shelter": "yes",
      "tactile_paving": "no",
      "tram": "yes",
      "wheelchair": "no"
    }
  },
  {
    "type": "node",
    "id": 942554498,
    "lat": 51.3204749,
    "lon": 12.3772425,
    "tags": {
      "bench": "no",
      "bin": "yes",
      "bus": "yes",
      "check_date:shelter": "2021-09-25",
      "highway": "bus_stop",
      "lit": "no",
      "name": "Kurt-Eisner-/Arthur-Hoffmann-Straße",
      "operator": "LVB GmbH",
      "public_transport": "platform",
      "ref": "0151",
      "shelter": "no",
      "tactile_paving": "no",
      "wheelchair": "no"
    }
  },
  {
    "type": "node",
    "id": 942600440,
    "lat": 51.3035834,
    "lon": 12.3141177,
    "tags": {
      "bench": "no",
      "bin": "no",
      "bus": "yes",
      "highway": "bus_stop",
      "kerb": "lowered",
      "lit": "yes",
      "name": "Weidenweg",
      "network": "Mitteldeutscher Verkehrsverbund",
      "network:short": "MDV",
      "network:wikidata": "Q1742463",
      "operator": "Leipziger Verkehrsbetriebe",
      "passenger_information_display": "no",
      "public_transport": "platform",
      "ref": "0638",
      "route_ref": "65",
      "shelter": "no",
      "tactile_paving": "no",
      "wheelchair": "no"
    }
  },
  {
    "type": "node",
    "id": 942600484,
    "lat": 51.3039843,
    "lon": 12.3142879,
    "tags": {
      "bench": "no",
      "bin": "no",
      "bus": "yes",
      "highway": "bus_stop",
      "kerb": "raised",
      "kerb:approach_aid": "no",
      "lit": "yes",
      "name": "Weidenweg",
      "network": "Mitteldeutscher Verkehrsverbund",
      "network:short": "MDV",
      "network:wikidata": "Q1742463",
      "operator": "Leipziger Verkehrsbetriebe",
      "passenger_information_display": "no",
      "public_transport": "platform",
      "ref": "0638",
      "route_ref": "65",
      "shelter": "no",
      "tactile_paving": "no",
      "wheelchair": "no"
    }
  },
  {
    "type": "node",
    "id": 944020658,
    "lat": 51.3406151,
    "lon": 12.4316816,
    "tags": {
      "bench": "no",
      "bin": "no",
      "bus": "yes",
      "departures_board": "timetable",
      "highway": "bus_stop",
      "lit": "no",
      "name": "Zweenfurther Straße",
      "network": "Mitteldeutscher Verkehrsverbund",
      "network:short": "MDV",
      "network:wikidata": "Q1742463",
      "operator": "Leipziger Transport und Logistik Betriebe GmbH",
      "public_transport": "platform",
      "ref": "0379",
      "shelter": "no",
      "tactile_paving": "no"
    }
  },
  {
    "type": "node",
    "id": 944020690,
    "lat": 51.3460585,
    "lon": 12.4289151,
    "tags": {
      "bench": "no",
      "bin": "no",
      "bus": "yes",
      "highway": "bus_stop",
      "lit": "yes",
      "name": "Rosmarinweg",
      "network": "Mitteldeutscher Verkehrsverbund",
      "operator": "Leipziger Verkehrsbetriebe",
      "public_transport": "platform",
      "ref": "0377",
      "shelter": "no",
      "tactile_paving": "no"
    }
  },
  {
    "type": "node",
    "id": 944020695,
    "lat": 51.3519618,
    "lon": 12.4257633,
    "tags": {
      "bus": "yes",
      "highway": "bus_stop",
      "name": "Permoser-/Torgauer Straße",
      "network": "Mitteldeutscher Verkehrsverbund",
      "network:short": "MDV",
      "network:wikidata": "Q1742463",
      "network:wikipedia": "de:Mitteldeutscher Verkehrsverbund",
      "operator": "Leipziger Verkehrsbetriebe GmbH",
      "public_transport": "stop_position",
      "ref": "0550",
      "shelter": "yes",
      "wheelchair": "yes"
    }
  },
  {
    "type": "node",
    "id": 944020791,
    "lat": 51.3420658,
    "lon": 12.4296814,
    "tags": {
      "bench": "no",
      "bin": "yes",
      "bus": "yes",
      "highway": "bus_stop",
      "lit": "yes",
      "name": "Cunnersdorfer Straße",
      "network": "Mitteldeutscher Verkehrsverbund",
      "operator": "Leipziger Verkehrsbetriebe",
      "public_transport": "platform",
      "ref": "0376",
      "shelter": "no",
      "tactile_paving": "yes",
      "wheelchair": "yes"
    }
  },
  {
    "type": "node",
    "id": 944020801,
    "lat": 51.3404580,
    "lon": 12.4314680,
    "tags": {
      "bench": "no",
      "bin": "no",
      "bus": "yes",
      "departures_board": "timetable",
      "highway": "bus_stop",
      "lit": "no",
      "name": "Zweenfurther Straße",
      "network": "Mitteldeutscher Verkehrsverbund",
      "network:short": "MDV",
      "network:wikidata": "Q1742463",
      "public_transport": "platform",
      "ref": "0379",
      "shelter": "no",
      "tactile_paving": "no"
    }
  },
  {
    "type": "node",
    "id": 944020950,
    "lat": 51.3404486,
    "lon": 12.4315213,
    "tags": {
      "bus": "yes",
      "highway": "bus_stop",
      "name": "Zweenfurther Straße",
      "network": "Mitteldeutscher Verkehrsverbund",
      "network:short": "MDV",
      "network:wikidata": "Q1742463",
      "public_transport": "stop_position",
      "ref": "0379",
      "wheelchair": "no"
    }
  },
  {
    "type": "node",
    "id": 944020965,
    "lat": 51.3571336,
    "lon": 12.4315306,
    "tags": {
      "bench": "no",
      "bin": "yes",
      "bus": "yes",
      "highway": "bus_stop",
      "lit": "yes",
      "local_ref": "0546",
      "name": "Bautzner/Bästleinstraße",
      "network": "Mitteldeutscher Verkehrsverbund",
      "operator": "Leipziger Verkehrsbetriebe",
      "public_transport": "platform",
      "route_ref": "77",
      "shelter": "no",
      "tactile_paving": "yes",
      "wheelchair": "yes"
    }
  },
  {
    "type": "node",
    "id": 944020968,
    "lat": 51.3574579,
    "lon": 12.4110973,
    "tags": {
      "bus": "yes",
      "highway": "bus_stop",
      "name": "Taubestraße",
      "network": "MDV",
      "network:wikidata": "Q1742463",
      "network:wikipedia": "de:Mitteldeutscher Verkehrsverbund",
      "public_transport": "stop_position",
      "ref": "0374",
      "wheelchair": "no"
    }
  },
  {
    "type": "node",
    "id": 944020974,
    "lat": 51.3573762,
    "lon": 12.4114972,
    "tags": {
      "bus": "yes",
      "highway": "bus_stop",
      "name": "Taubestraße",
      "network": "MDV",
      "network:wikidata": "Q1742463",
      "network:wikipedia": "de:Mitteldeutscher Verkehrsverbund",
      "public_transport": "stop_position",
      "ref": "0374",
      "wheelchair": "no"
    }
  },
  {
    "type": "node",
    "id": 944021006,
    "lat": 51.3513348,
    "lon": 12.4300470,
    "tags": {
      "bench": "yes",
      "bin": "yes",
      "bus": "yes",
      "highway": "bus_stop",
      "lit": "no",
      "local_ref": "0554",
      "name": "Leonhard-Frank-Straße",
      "public_transport": "platform",
      "shelter": "yes",
      "tactile_paving": "yes"
    }
  },
  {
    "type": "node",
    "id": 944021011,
    "lat": 51.3438133,
    "lon": 12.4282812,
    "tags": {
      "bench": "yes",
      "bin": "yes",
      "bus": "yes",
      "departures_board": "yes",
      "highway": "bus_stop",
      "lit": "yes",
      "name": "Sellerhausen, Emmausstraße",
      "network": "Mitteldeutscher Verkehrsverbund",
      "network:short": "MDV",
      "network:wikidata": "Q1742463",
      "operator": "Leipziger Verkehrsbetriebe",
      "passenger_information_display": "yes",
      "passenger_information_display:speech_output": "yes",
      "public_transport": "platform",
      "railway": "platform",
      "ref": "0079",
      "shelter": "yes",
      "tactile_paving": "no",
      "tram": "yes",
      "wheelchair": "no"
    }
  },
  {
    "type": "node",
    "id": 944021030,
    "lat": 51.3572534,
    "lon": 12.4316084,
    "tags": {
      "bench": "no",
      "bus": "yes",
      "highway": "bus_stop",
      "lit": "yes",
      "local_ref": "0546",
      "name": "Bautzner/Bästleinstraße",
      "network": "Mitteldeutscher Verkehrsverbund",
      "operator": "Leipziger Verkehrsbetriebe",
      "public_transport": "platform",
      "route_ref": "77, N6",
      "shelter": "no",
      "tactile_paving": "yes",
      "wheelchair": "yes"
    }
  },
  {
    "type": "node",
    "id": 944021038,
    "lat": 51.3485268,
    "lon": 12.4303356,
    "tags": {
      "bench": "yes",
      "bin": "yes",
      "bus": "yes",
      "departures_board": "timetable",
      "highway": "bus_stop",
      "lit": "yes",
      "name": "Louis-Fürnberg-Straße",
      "network": "Mitteldeutscher Verkehrsverbund",
      "network:short": "MDV",
      "network:wikidata": "Q1742463",
      "operator": "Leipziger Transport und Logistik Betriebe GmbH",
      "public_transport": "platform",
      "ref": "0375",
      "route_ref": "77",
      "shelter": "no",
      "tactile_paving": "yes"
    }
  },
  {
    "type": "node",
    "id": 944021074,
    "lat": 51.3533818,
    "lon": 12.4211250,
    "tags": {
      "bench": "yes",
      "bin": "yes",
      "bus": "yes",
      "departures_board": "timetable",
      "highway": "bus_stop",
      "lit": "yes",
      "name": "Volksgartenstraße",
      "network": "Mitteldeutscher Verkehrsverbund",
      "network:short": "MDV",
      "network:wikidata": "Q1742463",
      "public_transport": "platform",
      "ref": "0549",
      "shelter": "yes",
      "tactile_paving": "yes",
      "wheelchair": "yes"
    }
  },
  {
    "type": "node",
    "id": 944021085,
    "lat": 51.3421147,
    "lon": 12.4298210,
    "tags": {
      "bench": "no",
      "bin": "yes",
      "bus": "yes",
      "highway": "bus_stop",
      "lit": "yes",
      "name": "Cunnersdorfer Straße",
      "network": "Mitteldeutscher Verkehrsverbund",
      "operator": "Leipziger Verkehrsbetriebe",
      "public_transport": "platform",
      "ref": "0377",
      "shelter": "no",
      "tactile_paving": "yes",
      "wheelchair": "yes"
    }
  },
  {
    "type": "node",
    "id": 944021153,
    "lat": 51.3587189,
    "lon": 12.4281504,
    "tags": {
      "bench": "yes",
      "bus": "yes",
      "highway": "bus_stop",
      "name": "Bertolt-Brecht-Straße",
      "network": "Mitteldeutscher Verkehrsverbund",
      "operator": "Leipziger Verkehrsbetriebe",
      "public_transport": "platform",
      "ref": "0544",
      "route_ref": "70, 77",
      "shelter": "yes",
      "tactile_paving": "yes",
      "wheelchair": "yes"
    }
  },
  {
    "type": "node",
    "id": 944021156,
    "lat": 51.3406254,
    "lon": 12.4316217,
    "tags": {
      "bus": "yes",
      "highway": "bus_stop",
      "name": "Zweenfurther Straße",
      "network": "Mitteldeutscher Verkehrsverbund",
      "network:short": "MDV",
      "network:wikidata": "Q1742463",
      "public_transport": "stop_position",
      "ref": "0379",
      "wheelchair": "no"
    }
  },
  {
    "type": "node",
    "id": 944021194,
    "lat": 51.3510171,
    "lon": 12.4069485,
    "tags": {
      "bench": "yes",
      "bin": "yes",
      "bus": "yes",
      "highway": "bus_stop",
      "lit": "yes",
      "local_ref": "0035",
      "name": "Stannebeinplatz",
      "public_transport": "platform",
      "shelter": "yes",
      "tactile_paving": "yes",
      "tram": "yes",
      "wheelchair": "yes"
    }
  },
  {
    "type": "node",
    "id": 944021223,
    "lat": 51.3533612,
    "lon": 12.4208850,
    "tags": {
      "bench": "yes",
      "bin": "yes",
      "bus": "yes",
      "departures_board": "timetable",
      "highway": "bus_stop",
      "lit": "yes",
      "name": "Volksgartenstraße",
      "network": "Mitteldeutscher Verkehrsverbund",
      "network:short": "MDV",
      "network:wikidata": "Q1742463",
      "public_transport": "platform",
      "ref": "0549",
      "shelter": "yes",
      "tactile_paving": "yes",
      "wheelchair": "yes"
    }
  },
  {
    "type": "node",
    "id": 944021268,
    "lat": 51.3509301,
    "lon": 12.4305365,
    "tags": {
      "bench": "yes",
      "bin": "yes",
      "bus": "yes",
      "departures_board": "timetable",
      "highway": "bus_stop",
      "lit": "yes",
      "name": "Leonhard-Frank-Straße",
      "network": "Mitteldeutscher Verkehrsverbund",
      "network:short": "MDV",
      "network:wikidata": "Q1742463",
      "operator": "Leipziger Transport und Logistik Betriebe GmbH",
      "public_transport": "platform",
      "ref": "0554",
      "route_ref": "77",
      "shelter": "no",
      "tactile_paving": "yes",
      "wheelchair": "limited"
    }
  },
  {
    "type": "node",
    "id": 944021276,
    "lat": 51.3586382,
    "lon": 12.4284162,
    "tags": {
      "bench": "no",
      "bus": "yes",
      "highway": "bus_stop",
      "name": "Bertolt-Brecht-Straße",
      "network": "Mitteldeutscher Verkehrsverbund",
      "operator": "Leipziger Verkehrsbetriebe",
      "public_transport": "platform",
      "ref": "0544",
      "route_ref": "70, 77",
      "shelter": "no",
      "tactile_paving": "yes",
      "wheelchair": "yes"
    }
  },
  {
    "type": "node",
    "id": 945163727,
    "lat": 51.3440145,
    "lon": 12.3802727,
    "tags": {
      "bus": "yes",
      "departures_board": "realtime",
      "description": "Hauptbahnhof, Steig B",
      "highway": "bus_stop",
      "local_ref": "B",
      "name": "Hauptbahnhof",
      "name:ja": "中央駅",
      "network": "Mitteldeutscher Verkehrsverbund",
      "network:short": "MDV",
      "network:wikidata": "Q1742463",
      "network:wikipedia": "de:Mitteldeutscher Verkehrsverbund",
      "operator": "LVB",
      "passenger_information_display": "yes",
      "public_transport": "stop_position",
      "railway": "tram_stop",
      "ref": "B",
      "tram": "yes",
      "uic_ref": "956291",
      "wheelchair": "yes"
    }
  },
  {
    "type": "node",
    "id": 946623200,
    "lat": 51.3636729,
    "lon": 12.3657679,
    "tags": {
      "bus": "yes",
      "highway": "bus_stop",
      "name": "Georg-Schumann-/Lindenthaler Straße",
      "network": "MDV",
      "public_transport": "stop_position",
      "ref": "0340",
      "route_ref": "85;90",
      "wheelchair": "yes"
    }
  },
  {
    "type": "node",
    "id": 1014713849,
    "lat": 51.3995987,
    "lon": 12.3413819,
    "tags": {
      "bus": "yes",
      "highway": "bus_stop",
      "name": "Lindenallee",
      "network": "Mitteldeutscher Verkehrsverbund",
      "network:short": "MDV",
      "network:wikidata": "Q1742463",
      "public_transport": "stop_position",
      "ref": "0740",
      "route_ref": "88"
    }
  },
  {
    "type": "node",
    "id": 1014713856,
    "lat": 51.4037577,
    "lon": 12.3412812,
    "tags": {
      "bus": "yes",
      "highway": "bus_stop",
      "name": "Breitenfeld, Kutscherweg",
      "network": "Mitteldeutscher Verkehrsverbund",
      "network:short": "MDV",
      "network:wikidata": "Q1742463",
      "public_transport": "stop_position",
      "ref": "0732",
      "route_ref": "88"
    }
  },
  {
    "type": "node",
    "id": 1024930980,
    "lat": 51.3449184,
    "lon": 12.4452053,
    "tags": {
      "bus": "yes",
      "highway": "bus_stop",
      "name": "Bahnhof Paunsdorf",
      "network": "MDV",
      "network:wikidata": "Q1742463",
      "network:wikipedia": "de:Mitteldeutscher Verkehrsverbund",
      "public_transport": "stop_position",
      "ref": "0525",
      "wheelchair": "yes"
    }
  },
  {
    "type": "node",
    "id": 1024975567,
    "lat": 51.2824308,
    "lon": 12.4609397,
    "tags": {
      "bus": "yes",
      "highway": "bus_stop",
      "name": "Schwarzes Ross",
      "network": "Mitteldeutscher Verkehrsverbund",
      "network:short": "MDV",
      "network:wikidata": "Q1742463",
      "operator": "LVB",
      "public_transport": "stop_position"
    }
  },
  {
    "type": "node",
    "id": 1024975570,
    "lat": 51.2818967,
    "lon": 12.4614910,
    "tags": {
      "bus": "yes",
      "highway": "bus_stop",
      "name": "Schwarzes Ross",
      "name:ja": "リーベルトヴォルクヴィッツ シュバルツェスロス",
      "network": "Mitteldeutscher Verkehrsverbund",
      "network:short": "MDV",
      "network:wikidata": "Q1742463",
      "operator": "Leipziger Verkehrsbetriebe GmbH",
      "public_transport": "stop_position",
      "wheelchair": "limited"
    }
  },
  {
    "type": "node",
    "id": 1024975596,
    "lat": 51.2781656,
    "lon": 12.4697782,
    "tags": {
      "bus": "yes",
      "highway": "bus_stop",
      "name": "Liebertwolkwitz, Störmthaler Straße",
      "network": "Mitteldeutscher Verkehrsverbund",
      "network:short": "MDV",
      "network:wikidata": "Q1742463",
      "operator": "LVB",
      "public_transport": "stop_position",
      "ref": "0874",
      "route_ref": "N8",
      "shelter": "no"
    }
  },
  {
    "type": "node",
    "id": 1024975603,
    "lat": 51.2768265,
    "lon": 12.4694518,
    "tags": {
      "bus": "yes",
      "highway": "bus_stop",
      "name": "Liebertwolkwitz, Störmthaler Straße",
      "network": "Mitteldeutscher Verkehrsverbund",
      "network:short": "MDV",
      "network:wikidata": "Q1742463",
      "public_transport": "stop_position",
      "ref": "0874",
      "route_ref": "143;171"
    }
  },
  {
    "type": "node",
    "id": 1052328629,
    "lat": 51.3914465,
    "lon": 12.4558679,
    "tags": {
      "bus": "yes",
      "highway": "bus_stop",
      "name": "Grundstraße",
      "network": "MDV",
      "operator": "LVB",
      "public_transport": "stop_position",
      "ref_name": "Plaußig (Leipzig), Grundstr.",
      "shelter": "no"
    }
  },
  {
    "type": "node",
    "id": 1055744085,
    "lat": 51.3416631,
    "lon": 12.3572336,
    "tags": {
      "bench": "no",
      "bin": "no",
      "bus": "yes",
      "highway": "bus_stop",
      "kerb": "raised",
      "kerb:approach_aid": "no",
      "lit": "yes",
      "name": "Waldplatz",
      "network": "Mitteldeutscher Verkehrsverbund",
      "network:wikidata": "Q1742463",
      "operator": "Leipziger Verkehrsbetriebe",
      "passenger_information_display": "no",
      "public_transport": "platform",
      "ref": "0245",
      "route_ref": "E;N2;N3;N4;131",
      "shelter": "yes",
      "tactile_paving": "yes",
      "wheelchair": "yes"
    }
  },
  {
    "type": "node",
    "id": 1055744203,
    "lat": 51.3447770,
    "lon": 12.2787413,
    "tags": {
      "bus": "yes",
      "highway": "bus_stop",
      "name": "Rückmarsdorf, Zum Bahnhof",
      "network": "Mitteldeutscher Verkehrsverbund",
      "network:short": "MDV",
      "network:wikidata": "Q1742463",
      "public_transport": "stop_position",
      "ref": "1007",
      "source:name": "survey",
      "source:ref": "survey"
    }
  },
  {
    "type": "node",
    "id": 1055744518,
    "lat": 51.3464847,
    "lon": 12.2605190,
    "tags": {
      "bus": "yes",
      "highway": "bus_stop",
      "name": "Rückmarsdorf, Sandberg",
      "network": "Mitteldeutscher Verkehrsverbund",
      "network:short": "MDV",
      "network:wikidata": "Q1742463",
      "public_transport": "stop_position",
      "ref": "1009",
      "route_ref": "62;130;131",
      "source:name": "survey",
      "source:ref": "survey"
    }
  },
  {
    "type": "node",
    "id": 1055744557,
    "lat": 51.3447263,
    "lon": 12.2793307,
    "tags": {
      "bus": "yes",
      "highway": "bus_stop",
      "name": "Rückmarsdorf, Zum Bahnhof",
      "network": "Mitteldeutscher Verkehrsverbund",
      "network:short": "MDV",
      "network:wikidata": "Q1742463",
      "public_transport": "stop_position",
      "ref": "1007",
      "source:name": "survey",
      "source:ref": "survey"
    }
  },
  {
    "type": "node",
    "id": 1055744611,
    "lat": 51.3465311,
    "lon": 12.2584637,
    "tags": {
      "bus": "yes",
      "highway": "bus_stop",
      "name": "Rückmarsdorf, Sandberg",
      "network": "Mitteldeutscher Verkehrsverbund",
      "network:short": "MDV",
      "network:wikidata": "Q1742463",
      "public_transport": "stop_position",
      "ref": "1009",
      "route_ref": "62;130;131",
      "source:name": "survey",
      "source:ref": "survey"
    }
  },
  {
    "type": "node",
    "id": 1058102254,
    "lat": 51.3017080,
    "lon": 12.2625172,
    "tags": {
      "bus": "yes",
      "highway": "bus_stop",
      "name": "Am Sonneneck",
      "network": "MDV",
      "operator": "LVB",
      "public_transport": "stop_position",
      "ref": "0647"
    }
  },
  {
    "type": "node",
    "id": 1058102258,
    "lat": 51.3015975,
    "lon": 12.2657751,
    "tags": {
      "bus": "yes",
      "highway": "bus_stop",
      "name": "Lausen, Regenbogen",
      "public_transport": "stop_position"
    }
  },
  {
    "type": "node",
    "id": 1058102269,
    "lat": 51.3016655,
    "lon": 12.2704133,
    "tags": {
      "bus": "yes",
      "highway": "bus_stop",
      "name": "Lausen, Wolkenweg",
      "network": "MDV",
      "public_transport": "stop_position",
      "ref": "0646"
    }
  },
  {
    "type": "node",
    "id": 1058102274,
    "lat": 51.3016289,
    "lon": 12.2702499,
    "tags": {
      "bus": "yes",
      "highway": "bus_stop",
      "name": "Lausen, Wolkenweg",
      "network": "MDV",
      "public_transport": "stop_position",
      "ref": "0646"
    }
  },
  {
    "type": "node",
    "id": 1080509179,
    "lat": 51.4103663,
    "lon": 12.2953750,
    "tags": {
      "bus": "yes",
      "highway": "bus_stop",
      "name": "Porsche Tor 1",
      "operator": "LVB / Auto Webel",
      "public_transport": "stop_position",
      "ref_name": "Leipzig, Porsche/Tor 1"
    }
  },
  {
    "type": "node",
    "id": 1088490708,
    "lat": 51.3466447,
    "lon": 12.4787599,
    "tags": {
      "bus": "yes",
      "highway": "bus_stop",
      "name": "Sommerfeld",
      "public_transport": "stop_position",
      "wheelchair": "yes"
    }
  },
  {
    "type": "node",
    "id": 1115578885,
    "lat": 51.3808024,
    "lon": 12.2910985,
    "tags": {
      "bench": "no",
      "bin": "no",
      "bus": "yes",
      "highway": "bus_stop",
      "lit": "no",
      "name": "Stahmelner Allee",
      "network": "Mitteldeutscher Verkehrsverbund",
      "network:short": "MDV",
      "network:wikidata": "Q1742463",
      "operator": "Leipziger Verkehrsbetriebe",
      "public_transport": "platform",
      "route_ref": "N4;SEV",
      "shelter": "no",
      "tactile_paving": "no",
      "wheelchair": "no"
    }
  },
  {
    "type": "node",
    "id": 1123390305,
    "lat": 51.3568518,
    "lon": 12.3131905,
    "tags": {
      "bus": "yes",
      "crossing:island": "yes",
      "highway": "bus_stop",
      "name": "Am Sportpark",
      "network": "MDV",
      "public_transport": "stop_position",
      "ref": "0600",
      "wheelchair": "limited"
    }
  },
  {
    "type": "node",
    "id": 1128150496,
    "lat": 51.3527506,
    "lon": 12.3020432,
    "tags": {
      "bus": "yes",
      "highway": "bus_stop",
      "name": "S-Bahnhof Leutzsch",
      "network": "MDV",
      "public_transport": "stop_position"
    }
  },
  {
    "type": "node",
    "id": 1150162546,
    "lat": 51.3145709,
    "lon": 12.2796721,
    "tags": {
      "bus": "yes",
      "highway": "bus_stop",
      "name": "Alte Salzstraße",
      "network": "MDV",
      "operator": "LVB",
      "public_transport": "stop_position",
      "ref": "0619"
    }
  },
  {
    "type": "node",
    "id": 1221687152,
    "lat": 51.3514314,
    "lon": 12.4071123,
    "tags": {
      "bench": "yes",
      "bin": "yes",
      "bus": "yes",
      "highway": "bus_stop",
      "lit": "yes",
      "name": "Stannebeinplatz",
      "network": "Mitteldeutscher Verkehrsverbund",
      "network:short": "MDV",
      "network:wikidata": "Q1742463",
      "operator": "Leipziger Verkehrsbetriebe",
      "public_transport": "platform",
      "route_ref": "77, 90",
      "shelter": "yes",
      "tactile_paving": "yes"
    }
  },
  {
    "type": "node",
    "id": 1221687181,
    "lat": 51.3538571,
    "lon": 12.4115864,
    "tags": {
      "bench": "yes",
      "bin": "yes",
      "bus": "yes",
      "highway": "bus_stop",
      "lit": "yes",
      "local_ref": "0036",
      "name": "Stöckelstraße",
      "network": "Mitteldeutscher Verkehrsverbund",
      "operator": "Leipziger Verkehrsbetriebe",
      "public_transport": "platform",
      "shelter": "yes",
      "tactile_paving": "no",
      "tram": "yes",
      "wheelchair": "no"
    }
  },
  {
    "type": "node",
    "id": 1221751178,
    "lat": 51.3523410,
    "lon": 12.3997123,
    "tags": {
      "bench": "yes",
      "bin": "yes",
      "bus": "yes",
      "covered": "yes",
      "highway": "bus_stop",
      "name": "Mariannenpark",
      "network": "Mitteldeutscher Verkehrsverbund",
      "operator": "Leipziger Verkehrsbetriebe",
      "public_transport": "platform",
      "ref": "0542",
      "route_ref": "77, 90",
      "shelter": "yes",
      "wheelchair": "yes"
    }
  },
  {
    "type": "node",
    "id": 1221791508,
    "lat": 51.3692470,
    "lon": 12.4251287,
    "tags": {
      "bench": "yes",
      "bin": "yes",
      "bus": "yes",
      "highway": "bus_stop",
      "lit": "no",
      "name": "Heiterblickstraße",
      "public_transport": "platform",
      "shelter": "yes",
      "tactile_paving": "yes",
      "wheelchair": "yes"
    }
  },
  {
    "type": "node",
    "id": 1281534685,
    "lat": 51.3237623,
    "lon": 12.4750073,
    "tags": {
      "bench": "yes",
      "bin": "yes",
      "bus": "yes",
      "check_date:shelter": "2022-04-17",
      "highway": "bus_stop",
      "lit": "yes",
      "name": "Brandiser Straße",
      "network": "MDV",
      "passenger_information_display": "no",
      "public_transport": "platform",
      "ref": "0754",
      "shelter": "yes",
      "tactile_paving": "yes"
    }
  },
  {
    "type": "node",
    "id": 1324736147,
    "lat": 51.3464573,
    "lon": 12.4880225,
    "tags": {
      "bus": "yes",
      "highway": "bus_stop",
      "name": "Sternenstraße",
      "network": "Mitteldeutscher Verkehrsverbund",
      "network:short": "MDV",
      "network:wikidata": "Q1742463",
      "public_transport": "stop_position",
      "ref": "0820",
      "tactile_paving": "no"
    }
  },
  {
    "type": "node",
    "id": 1327226380,
    "lat": 51.2866268,
    "lon": 12.4064880,
    "tags": {
      "bus": "yes",
      "highway": "bus_stop",
      "name": "Johannishöhe",
      "network": "Mitteldeutscher Verkehrsverbund",
      "network:short": "MDV",
      "network:wikidata": "Q1742463",
      "operator": "LVB",
      "public_transport": "stop_position",
      "shelter": "no"
    }
  },
  {
    "type": "node",
    "id": 1395169568,
    "lat": 51.3439474,
    "lon": 12.3802043,
    "tags": {
      "bus": "yes",
      "departures_board": "realtime",
      "description": "Hauptbahnhof, Steig C",
      "highway": "bus_stop",
      "local_ref": "C",
      "name": "Hauptbahnhof",
      "name:ja": "中央駅",
      "network": "Mitteldeutscher Verkehrsverbund",
      "network:short": "MDV",
      "network:wikidata": "Q1742463",
      "network:wikipedia": "de:Mitteldeutscher Verkehrsverbund",
      "passenger_information_display": "yes",
      "public_transport": "stop_position",
      "railway": "tram_stop",
      "ref": "C",
      "tram": "yes",
      "uic_ref": "956291",
      "wheelchair": "yes"
    }
  },
  {
    "type": "node",
    "id": 1395169569,
    "lat": 51.3440444,
    "lon": 12.3803031,
    "tags": {
      "bus": "yes",
      "departures_board": "realtime",
      "description": "Hauptbahnhof, Steig A",
      "highway": "bus_stop",
      "local_ref": "A",
      "name": "Hauptbahnhof",
      "name:en": "Main Station",
      "name:ja": "中央駅",
      "network": "Mitteldeutscher Verkehrsverbund",
      "network:short": "MDV",
      "network:wikidata": "Q1742463",
      "network:wikipedia": "de:Mitteldeutscher Verkehrsverbund",
      "passenger_information_display": "yes",
      "public_transport": "stop_position",
      "railway": "tram_stop",
      "ref": "A",
      "tram": "yes",
      "uic_ref": "956291",
      "wheelchair": "yes"
    }
  },
  {
    "type": "node",
    "id": 1422394588,
    "lat": 51.3226974,
    "lon": 12.4886539,
    "tags": {
      "bus": "yes",
      "highway": "bus_stop",
      "name": "Baalsdorf, Kirchweg",
      "network": "MDV",
      "operator": "LVB",
      "public_transport": "stop_position",
      "ref": "0756"
    }
  },
  {
    "type": "node",
    "id": 1445519545,
    "lat": 51.3496208,
    "lon": 12.3098450,
    "tags": {
      "bench": "yes",
      "bin": "yes",
      "bus": "yes",
      "highway": "bus_stop",
      "lit": "yes",
      "name": "Pfingstweide",
      "network": "Mitteldeutscher Verkehrsverbund",
      "network:short": "MDV",
      "network:wikidata": "Q1742463",
      "operator": "Leipziger Verkehrsbetriebe",
      "passenger_information_display": "yes",
      "passenger_information_display:speech_output": "no",
      "public_transport": "platform",
      "route_ref": "67, N3",
      "shelter": "no",
      "tactile_paving": "yes",
      "wheelchair": "yes"
    }
  },
  {
    "type": "node",
    "id": 1540996458,
    "lat": 51.3245825,
    "lon": 12.4593691,
    "tags": {
      "bus": "yes",
      "highway": "bus_stop",
      "name": "Bahnhof Mölkau",
      "network": "MDV",
      "operator": "LVB",
      "public_transport": "stop_position",
      "ref": "0752"
    }
  },
  {
    "type": "node",
    "id": 1567647919,
    "lat": 51.3233453,
    "lon": 12.4812696,
    "tags": {
      "bench": "no",
      "bin": "yes",
      "bus": "yes",
      "highway": "bus_stop",
      "lit": "yes",
      "name": "Baalsdorfer Straße",
      "network": "MDV",
      "operator": "LVB",
      "passenger_information_display": "no",
      "public_transport": "platform",
      "ref": "0755",
      "shelter": "no",
      "tactile_paving": "yes"
    }
  },
  {
    "type": "node",
    "id": 1629630300,
    "lat": 51.3071450,
    "lon": 12.2650543,
    "tags": {
      "bus": "yes",
      "highway": "bus_stop",
      "name": "Zschampertaue",
      "network": "Mitteldeutscher Verkehrsverbund",
      "network:short": "MDV",
      "network:wikidata": "Q1742463",
      "operator": "LVB",
      "public_transport": "stop_position",
      "ref": "0221",
      "wheelchair": "yes"
    }
  },
  {
    "type": "node",
    "id": 1630359168,
    "lat": 51.3087805,
    "lon": 12.2707676,
    "tags": {
      "bus": "yes",
      "highway": "bus_stop",
      "name": "Krakauer Straße",
      "network": "Mitteldeutscher Verkehrsverbund",
      "network:short": "MDV",
      "network:wikidata": "Q1742463",
      "operator": "LVB",
      "public_transport": "stop_position",
      "ref": "0220"
    }
  },
  {
    "type": "node",
    "id": 1643419285,
    "lat": 51.3163201,
    "lon": 12.2627160,
    "tags": {
      "bus": "yes",
      "highway": "bus_stop",
      "name": "Straße am See",
      "network": "MDV",
      "operator": "LVB",
      "public_transport": "stop_position",
      "ref": "0652"
    }
  },
  {
    "type": "node",
    "id": 1674957159,
    "lat": 51.3622488,
    "lon": 12.4304652,
    "tags": {
      "bench": "yes",
      "bin": "no",
      "bus": "yes",
      "highway": "bus_stop",
      "lit": "yes",
      "local_ref": "0578",
      "name": "Schönefeld-Ost, Verbundnetz Gas AG",
      "public_transport": "platform",
      "shelter": "yes",
      "tactile_paving": "no",
      "toilets:wheelchair": "no",
      "wheelchair": "limited"
    }
  },
  {
    "type": "node",
    "id": 1676113891,
    "lat": 51.3593342,
    "lon": 12.4304455,
    "tags": {
      "bench": "no",
      "bin": "yes",
      "bus": "yes",
      "check_date:shelter": "2024-06-13",
      "highway": "bus_stop",
      "local_ref": "0575",
      "name": "Braun-/ Bautzner Straße",
      "public_transport": "platform",
      "shelter": "no"
    }
  },
  {
    "type": "node",
    "id": 1678245194,
    "lat": 51.3620962,
    "lon": 12.4308798,
    "tags": {
      "bench": "yes",
      "bus": "yes",
      "highway": "bus_stop",
      "local_ref": "0578",
      "name": "Schönefeld-Ost, Verbundnetz Gas AG",
      "public_transport": "platform",
      "shelter": "no"
    }
  },
  {
    "type": "node",
    "id": 1678245195,
    "lat": 51.3648954,
    "lon": 12.4304984,
    "tags": {
      "bench": "no",
      "bin": "yes",
      "bus": "yes",
      "highway": "bus_stop",
      "lit": "no",
      "local_ref": "0574",
      "name": "Stöhrer-/Braunstraße",
      "network": "Mitteldeutscher Verkehrsverbund",
      "operator": "Leipziger Verkehrsbetriebe",
      "public_transport": "platform",
      "route_ref": "70",
      "shelter": "no",
      "tactile_paving": "yes",
      "wheelchair": "yes"
    }
  },
  {
    "type": "node",
    "id": 1678245197,
    "lat": 51.3661547,
    "lon": 12.4308838,
    "tags": {
      "bench": "yes",
      "bus": "yes",
      "highway": "bus_stop",
      "local_ref": "0574",
      "name": "Stöhrer-/Braunstraße",
      "network": "Mitteldeutscher Verkehrsverbund",
      "operator": "Leipziger Verkehrsbetriebe",
      "public_transport": "platform",
      "route_ref": "70",
      "shelter": "yes",
      "tactile_paving": "yes",
      "wheelchair": "yes"
    }
  },
  {
    "type": "node",
    "id": 1690724276,
    "lat": 51.2671157,
    "lon": 12.2981249,
    "tags": {
      "bus": "yes",
      "highway": "bus_stop",
      "name": "Am Klucksgraben",
      "network": "Mitteldeutscher Verkehrsverbund",
      "network:short": "MDV",
      "network:wikidata": "Q1742463",
      "public_transport": "stop_position",
      "ref": "1105"
    }
  },
  {
    "type": "node",
    "id": 1703284923,
    "lat": 51.3126859,
    "lon": 12.4650503,
    "tags": {
      "bench": "yes",
      "bus": "yes",
      "highway": "bus_stop",
      "name": "Kärrnerstraße",
      "network": "Mitteldeutscher Verkehrsverbund",
      "operator": "Leipziger Verkehrsbetriebe",
      "public_transport": "platform",
      "route_ref": "74, 172",
      "shelter": "yes",
      "tactile_paving": "yes",
      "wheelchair": "no"
    }
  },
  {
    "type": "node",
    "id": 1840707645,
    "lat": 51.3214710,
    "lon": 12.4300042,
    "tags": {
      "bench": "no",
      "bin": "yes",
      "bus": "yes",
      "highway": "bus_stop",
      "kerb": "raised",
      "kerb:approach_aid": "no",
      "lit": "no",
      "name": "Oberdorfstraße",
      "network": "MDV",
      "network:wikidata": "Q1742463",
      "network:wikipedia": "de:Mitteldeutscher Verkehrsverbund",
      "operator": "LVB",
      "passenger_information_display": "no",
      "public_transport": "platform",
      "shelter": "no",
      "tactile_paving": "no"
    }
  },
  {
    "type": "node",
    "id": 1899917190,
    "lat": 51.3347591,
    "lon": 12.3780380,
    "tags": {
      "bench": "no",
      "bin": "no",
      "bus": "yes",
      "covered": "no",
      "highway": "bus_stop",
      "lit": "yes",
      "name": "Roßplatz",
      "network": "Mitteldeutscher Verkehrsverbund",
      "network:wikidata": "Q1742463",
      "operator": "Leipziger Verkehrsbetriebe",
      "passenger_information_display": "no",
      "public_transport": "platform",
      "route_ref": "N8, 412",
      "shelter": "no",
      "tactile_paving": "no",
      "wheelchair": "no"
    }
  },
  {
    "type": "node",
    "id": 1982137955,
    "lat": 51.3441057,
    "lon": 12.2628579,
    "tags": {
      "bench": "no",
      "bus": "yes",
      "covered": "no",
      "highway": "bus_stop",
      "name": "Rückmarsdorf, Einkaufspassage",
      "public_transport": "platform",
      "shelter": "no",
      "tactile_paving": "no"
    }
  },
  {
    "type": "node",
    "id": 1982137964,
    "lat": 51.3452448,
    "lon": 12.2630511,
    "tags": {
      "bench": "no",
      "bus": "yes",
      "highway": "bus_stop",
      "name": "Rückmarsdorf, Einkaufspassage",
      "passenger_information_display": "no",
      "public_transport": "platform",
      "shelter": "no",
      "tactile_paving": "no"
    }
  },
  {
    "type": "node",
    "id": 1982137994,
    "lat": 51.3497242,
    "lon": 12.3164555,
    "tags": {
      "bench": "no",
      "bin": "yes",
      "bus": "yes",
      "check_date:shelter": "2022-04-13",
      "highway": "bus_stop",
      "kerb": "lowered",
      "lit": "yes",
      "name": "Paul-Michael-Straße",
      "network": "Mitteldeutscher Verkehrsverbund",
      "network:short": "MDV",
      "network:wikidata": "Q1742463",
      "operator": "Leipziger Verkehrsbetriebe",
      "passenger_information_display": "no",
      "public_transport": "platform",
      "ref:IFOPT": "de:14713:12564::01",
      "route_ref": "67",
      "shelter": "no",
      "tactile_paving": "no",
      "wheelchair": "no"
    }
  },
  {
    "type": "node",
    "id": 2055653504,
    "lat": 51.3290900,
    "lon": 12.3366988,
    "tags": {
      "bus": "yes",
      "highway": "bus_stop",
      "name": "Elster Passage",
      "network": "Mitteldeutscher Verkehrsverbund",
      "network:short": "MDV",
      "network:wikidata": "Q1742463",
      "public_transport": "stop_position",
      "railway": "tram_stop",
      "ref": "0249",
      "tram": "yes",
      "wheelchair": "yes"
    }
  },
  {
    "type": "node",
    "id": 2055653520,
    "lat": 51.3291580,
    "lon": 12.3368160,
    "tags": {
      "bus": "yes",
      "highway": "bus_stop",
      "name": "Elster Passage",
      "network": "Mitteldeutscher Verkehrsverbund",
      "network:short": "MDV",
      "network:wikidata": "Q1742463",
      "public_transport": "stop_position",
      "railway": "tram_stop",
      "ref": "0249",
      "tram": "yes",
      "wheelchair": "yes"
    }
  },
  {
    "type": "node",
    "id": 2055682581,
    "lat": 51.3203707,
    "lon": 12.3261929,
    "tags": {
      "bus": "yes",
      "highway": "bus_stop",
      "name": "Antonien-/Gießerstraße",
      "network": "MDV",
      "public_transport": "stop_position",
      "railway": "tram_stop",
      "ref": "0212",
      "tactile_paving": "no",
      "tram": "yes",
      "wheelchair": "limited"
    }
  },
  {
    "type": "node",
    "id": 2066528476,
    "lat": 51.3115272,
    "lon": 12.4167924,
    "tags": {
      "bench": "yes",
      "bin": "yes",
      "bus": "yes",
      "highway": "bus_stop",
      "lit": "yes",
      "name": "Südfriedhof",
      "network": "Mitteldeutscher Verkehrsverbund",
      "network:short": "MDV",
      "network:wikidata": "Q1742463",
      "operator": "Leipziger Verkehrsbetriebe",
      "public_transport": "platform",
      "route_ref": "76, 690, SEV",
      "shelter": "yes",
      "tactile_paving": "no"
    }
  },
  {
    "type": "node",
    "id": 2066528480,
    "lat": 51.3110862,
    "lon": 12.4170870,
    "tags": {
      "bench": "yes",
      "bin": "yes",
      "bus": "yes",
      "highway": "bus_stop",
      "lit": "yes",
      "name": "Südfriedhof",
      "network": "Mitteldeutscher Verkehrsverbund",
      "network:short": "MDV",
      "network:wikidata": "Q1742463",
      "operator": "Leipziger Verkehrsbetriebe",
      "public_transport": "platform",
      "route_ref": "76, 690, SEV",
      "shelter": "yes",
      "tactile_paving": "yes"
    }
  },
  {
    "type": "node",
    "id": 2068488400,
    "lat": 51.3357357,
    "lon": 12.3304358,
    "tags": {
      "bus": "yes",
      "highway": "bus_stop",
      "name": "Lützner/Merseburger Straße",
      "network": "Mitteldeutscher Verkehrsverbund",
      "network:short": "MDV",
      "network:wikidata": "Q1742463",
      "public_transport": "stop_position",
      "railway": "tram_stop",
      "ref": "0279",
      "tram": "yes",
      "wheelchair": "yes"
    }
  },
  {
    "type": "node",
    "id": 2074612835,
    "lat": 51.3117818,
    "lon": 12.3732653,
    "tags": {
      "bus": "yes",
      "highway": "bus_stop",
      "name": "Connewitzer Kreuz",
      "network": "Mitteldeutscher Verkehrsverbund",
      "network:short": "MDV",
      "network:wikidata": "Q1742463",
      "public_transport": "stop_position",
      "railway": "tram_stop",
      "ref": "0172",
      "shelter": "yes",
      "tram": "yes",
      "wheelchair": "yes"
    }
  },
  {
    "type": "node",
    "id": 2100489280,
    "lat": 51.3457254,
    "lon": 12.4059221,
    "tags": {
      "bus": "yes",
      "highway": "bus_stop",
      "name": "Hermann-Liebmann-/Eisenbahnstraße",
      "network": "Mitteldeutscher Verkehrsverbund",
      "network:short": "MDV",
      "network:wikidata": "Q1742463",
      "operator": "LVB",
      "public_transport": "stop_position",
      "railway": "tram_stop",
      "ref": "0034",
      "tram": "yes",
      "wheelchair": "no"
    }
  },
  {
    "type": "node",
    "id": 2105889088,
    "lat": 51.3763978,
    "lon": 12.3940011,
    "tags": {
      "bus": "yes",
      "highway": "bus_stop",
      "name": "Zschortauer Straße",
      "network": "MDV",
      "public_transport": "stop_position",
      "ref": "0613",
      "route_ref": "80;85",
      "wheelchair": "limited",
      "wheelchair:description": "Bus 80, 85"
    }
  },
  {
    "type": "node",
    "id": 2131628699,
    "lat": 51.3103542,
    "lon": 12.5183834,
    "tags": {
      "bench": "yes",
      "bus": "yes",
      "highway": "bus_stop",
      "name": "Kleinpösna",
      "network": "MDV",
      "operator": "LVB",
      "public_transport": "stop_position",
      "shelter": "yes"
    }
  },
  {
    "type": "node",
    "id": 2132918784,
    "lat": 51.4202211,
    "lon": 12.4520558,
    "tags": {
      "bus": "yes",
      "highway": "bus_stop",
      "name": "Hohenheida, Am Anger",
      "public_transport": "stop_position"
    }
  },
  {
    "type": "node",
    "id": 2132941014,
    "lat": 51.4201330,
    "lon": 12.4524204,
    "tags": {
      "highway": "bus_stop",
      "name": "Hohenheida, Am Anger",
      "public_transport": "platform",
      "ref:IFOPT": "de:14713:11124::02"
    }
  },
  {
    "type": "node",
    "id": 2132941016,
    "lat": 51.4199674,
    "lon": 12.4465894,
    "tags": {
      "highway": "bus_stop",
      "name": "Hohenheida, Gasthof",
      "public_transport": "platform",
      "ref:IFOPT": "de:14713:11123::02"
    }
  },
  {
    "type": "node",
    "id": 2132941018,
    "lat": 51.4196856,
    "lon": 12.4420295,
    "tags": {
      "highway": "bus_stop",
      "name": "Hohenheida, Lindengasse",
      "public_transport": "platform",
      "ref:IFOPT": "de:14713:12271::02"
    }
  },
  {
    "type": "node",
    "id": 2132941021,
    "lat": 51.4197425,
    "lon": 12.4412088,
    "tags": {
      "highway": "bus_stop",
      "name": "Hohenheida, Lindengasse",
      "public_transport": "platform",
      "ref:IFOPT": "de:14713:12271::01"
    }
  },
  {
    "type": "node",
    "id": 2132941022,
    "lat": 51.4202459,
    "lon": 12.4521737,
    "tags": {
      "highway": "bus_stop",
      "name": "Hohenheida, Am Anger",
      "public_transport": "platform",
      "ref:IFOPT": "de:14713:11124::01",
      "shelter": "yes"
    }
  },
  {
    "type": "node",
    "id": 2132941027,
    "lat": 51.4200583,
    "lon": 12.4464610,
    "tags": {
      "highway": "bus_stop",
      "name": "Hohenheida, Gasthof",
      "public_transport": "platform",
      "ref:IFOPT": "de:14713:11123::01",
      "tactile_paving": "yes"
    }
  },
  {
    "type": "node",
    "id": 2147000865,
    "lat": 51.4132804,
    "lon": 12.2965106,
    "tags": {
      "bus": "yes",
      "highway": "bus_stop",
      "name": "GVZ Nord, Porschestraße",
      "operator": "LVB",
      "public_transport": "stop_position",
      "ref_name": "Leipzig, GVZ Nord/Porschestraße"
    }
  },
  {
    "type": "node",
    "id": 2147014309,
    "lat": 51.4132038,
    "lon": 12.3028068,
    "tags": {
      "bench": "no",
      "bin": "no",
      "bus": "yes",
      "highway": "bus_stop",
      "name": "GVZ Nord, T&S",
      "network": "Mitteldeutscher Verkehrsverbund",
      "network:short": "MDV",
      "network:wikidata": "Q1742463",
      "operator": "Leipziger Verkehrsbetriebe",
      "public_transport": "platform",
      "shelter": "no",
      "tactile_paving": "no"
    }
  },
  {
    "type": "node",
    "id": 2147014313,
    "lat": 51.4133913,
    "lon": 12.2964711,
    "tags": {
      "bench": "yes",
      "bin": "no",
      "bus": "yes",
      "highway": "bus_stop",
      "name": "GVZ Nord, Porschestraße",
      "network": "Mitteldeutscher Verkehrsverbund",
      "network:short": "MDV",
      "network:wikidata": "Q1742463",
      "operator": "Leipziger Verkehrsbetriebe",
      "public_transport": "platform",
      "shelter": "yes",
      "tactile_paving": "no"
    }
  },
  {
    "type": "node",
    "id": 2169558230,
    "lat": 51.3175911,
    "lon": 12.3684751,
    "tags": {
      "bench": "no",
      "bin": "yes",
      "bus": "yes",
      "highway": "bus_stop",
      "lit": "yes",
      "name": "Steinstraße",
      "network": "Mitteldeutscher Verkehrsverbund",
      "network:wikidata": "Q1742463",
      "operator": "Leipziger Verkehrsbetriebe",
      "public_transport": "platform",
      "route_ref": "89",
      "shelter": "no",
      "tactile_paving": "yes",
      "wheelchair": "yes"
    }
  },
  {
    "type": "node",
    "id": 2229432327,
    "lat": 51.3520248,
    "lon": 12.4000421,
    "tags": {
      "bench": "no",
      "bin": "yes",
      "bus": "yes",
      "highway": "bus_stop",
      "lit": "no",
      "name": "Mariannenpark",
      "network": "Mitteldeutscher Verkehrsverbund",
      "operator": "Leipziger Verkehrsbetriebe",
      "public_transport": "platform",
      "ref": "0542",
      "shelter": "no",
      "tactile_paving": "no",
      "wheelchair": "yes"
    }
  },
  {
    "type": "node",
    "id": 2231484122,
    "lat": 51.3558021,
    "lon": 12.4292379,
    "tags": {
      "bench": "no",
      "bus": "yes",
      "departures_board": "timetable",
      "highway": "bus_stop",
      "lit": "yes",
      "local_ref": "0165",
      "name": "Bästlein-/Schwantesstraße",
      "network": "Mitteldeutscher Verkehrsverbund",
      "network:short": "MDV",
      "network:wikidata": "Q1742463",
      "operator": "Leipziger Verkehrsbetriebe",
      "public_transport": "platform",
      "route_ref": "77",
      "shelter": "no",
      "tactile_paving": "no",
      "wheelchair": "no"
    }
  },
  {
    "type": "node",
    "id": 2246510912,
    "lat": 51.3459089,
    "lon": 12.4650948,
    "tags": {
      "bench": "no",
      "bin": "no",
      "bus": "yes",
      "highway": "bus_stop",
      "lit": "yes",
      "name": "Güterbahnhofstraße",
      "network": "Mitteldeutscher Verkehrsverbund",
      "operator": "Leipziger Verkehrsbetriebe",
      "public_transport": "platform",
      "ref": "0681",
      "route_ref": "72, 90, N7",
      "shelter": "no",
      "tactile_paving": "yes",
      "wheelchair": "yes"
    }
  },
  {
    "type": "node",
    "id": 2246510916,
    "lat": 51.3458247,
    "lon": 12.4649845,
    "tags": {
      "bench": "no",
      "bin": "no",
      "bus": "yes",
      "highway": "bus_stop",
      "lit": "yes",
      "name": "Güterbahnhofstraße",
      "network": "Mitteldeutscher Verkehrsverbund",
      "operator": "Leipziger Verkehrsbetriebe",
      "public_transport": "platform",
      "ref": "0681",
      "route_ref": "72, 90, N7",
      "shelter": "no",
      "tactile_paving": "yes",
      "wheelchair": "yes"
    }
  },
  {
    "type": "node",
    "id": 2249189116,
    "lat": 51.3509782,
    "lon": 12.4385010,
    "tags": {
      "bench": "yes",
      "bin": "yes",
      "bus": "yes",
      "highway": "bus_stop",
      "lit": "yes",
      "local_ref": "0551",
      "name": "Elisabeth-Schumacher-Straße",
      "network": "Mitteldeutscher Verkehrsverbund",
      "network:short": "MDV",
      "network:wikidata": "Q1742463",
      "network:wikipedia": "de:Mitteldeutscher Verkehrsverbund",
      "public_transport": "platform",
      "shelter": "yes",
      "tactile_paving": "yes",
      "wheelchair": "yes"
    }
  },
  {
    "type": "node",
    "id": 2249189117,
    "lat": 51.3513804,
    "lon": 12.4311066,
    "tags": {
      "bench": "yes",
      "bin": "yes",
      "bus": "yes",
      "highway": "bus_stop",
      "lit": "yes",
      "name": "Leonhard-Frank-Straße",
      "network": "Mitteldeutscher Verkehrsverbund",
      "network:short": "MDV",
      "network:wikidata": "Q1742463",
      "operator": "Leipziger Verkehrsbetriebe",
      "public_transport": "platform",
      "shelter": "yes",
      "tactile_paving": "yes"
    }
  },
  {
    "type": "node",
    "id": 2249189133,
    "lat": 51.3506118,
    "lon": 12.4460643,
    "tags": {
      "bench": "yes",
      "bin": "yes",
      "bus": "yes",
      "highway": "bus_stop",
      "lit": "yes",
      "local_ref": "0552",
      "name": "Weinbrennerstraße",
      "network": "Mitteldeutscher Verkehrsverbund",
      "network:short": "MDV",
      "network:wikidata": "Q1742463",
      "network:wikipedia": "de:Mitteldeutscher Verkehrsverbund",
      "public_transport": "platform",
      "shelter": "yes",
      "tactile_paving": "yes"
    }
  },
  {
    "type": "node",
    "id": 2252446446,
    "lat": 51.3667624,
    "lon": 12.3761883,
    "tags": {
      "bench": "no",
      "bin": "yes",
      "bus": "yes",
      "highway": "bus_stop",
      "lit": "yes",
      "local_ref": "0603",
      "name": "Virchow-/Coppistraße",
      "network": "Mitteldeutscher Verkehrsverbund",
      "operator": "Leipziger Verkehrsbetriebe",
      "public_transport": "platform",
      "shelter": "no",
      "tactile_paving": "yes",
      "wheelchair": "yes"
    }
  },
  {
    "type": "node",
    "id": 2252446453,
    "lat": 51.3670176,
    "lon": 12.3754640,
    "tags": {
      "bench": "no",
      "bin": "yes",
      "bus": "yes",
      "departures_board": "realtime",
      "highway": "bus_stop",
      "lit": "yes",
      "local_ref": "0603",
      "name": "Virchow-/Coppistraße",
      "note": "Unterstandsmöglichkeit unter dem Vordach des Konsum",
      "public_transport": "platform",
      "shelter": "yes",
      "tactile_paving": "yes",
      "wheelchair": "yes"
    }
  },
  {
    "type": "node",
    "id": 2252446466,
    "lat": 51.3671713,
    "lon": 12.3757930,
    "tags": {
      "bench": "yes",
      "bin": "yes",
      "departures_board": "realtime",
      "highway": "bus_stop",
      "lit": "yes",
      "name": "Virchow-/Coppistraße",
      "note": "Nächste Haltestelle mit Rollstuhlzugang: S-Bahnhof Gohlis",
      "public_transport": "platform",
      "ref": "0603",
      "shelter": "yes",
      "tactile_paving": "no",
      "tram": "yes",
      "wheelchair": "no"
    }
  },
  {
    "type": "node",
    "id": 2252570377,
    "lat": 51.3670621,
    "lon": 12.3729519,
    "tags": {
      "bench": "yes",
      "bin": "yes",
      "bus": "yes",
      "highway": "bus_stop",
      "lit": "yes",
      "name": "Michael-Kazmierczak-Straße",
      "public_transport": "platform",
      "shelter": "yes",
      "tactile_paving": "no",
      "wheelchair": "yes"
    }
  },
  {
    "type": "node",
    "id": 2252570386,
    "lat": 51.3671634,
    "lon": 12.3730052,
    "tags": {
      "bench": "yes",
      "bin": "yes",
      "bus": "yes",
      "departures_board": "timetable",
      "highway": "bus_stop",
      "lit": "yes",
      "name": "Michael-Kazmierczak-Straße",
      "operator": "Leipziger Verkehrsbetriebe (LVB) GmbH",
      "public_transport": "platform",
      "shelter": "yes",
      "tactile_paving": "no",
      "wheelchair": "yes"
    }
  },
  {
    "type": "node",
    "id": 2267293802,
    "lat": 51.3633590,
    "lon": 12.3989100,
    "tags": {
      "bench": "no",
      "bin": "yes",
      "bus": "yes",
      "highway": "bus_stop",
      "lit": "yes",
      "local_ref": "0529",
      "name": "S-Bahnhof Leipzig-Nord",
      "public_transport": "platform",
      "shelter": "no",
      "tactile_paving": "no",
      "wheelchair": "yes"
    }
  },
  {
    "type": "node",
    "id": 2267293816,
    "lat": 51.3634900,
    "lon": 12.3987090,
    "tags": {
      "bench": "yes",
      "bin": "yes",
      "bus": "yes",
      "highway": "bus_stop",
      "lit": "yes",
      "local_ref": "0529",
      "name": "S-Bahnhof Leipzig-Nord",
      "public_transport": "platform",
      "shelter": "yes",
      "tactile_paving": "yes",
      "wheelchair": "yes"
    }
  },
  {
    "type": "node",
    "id": 2267300876,
    "lat": 51.3578339,
    "lon": 12.3976661,
    "tags": {
      "bench": "yes",
      "bin": "yes",
      "bus": "yes",
      "highway": "bus_stop",
      "lit": "yes",
      "local_ref": "0540",
      "name": "Rackwitzer Straße",
      "public_transport": "platform",
      "shelter": "yes",
      "tactile_paving": "yes"
    }
  },
  {
    "type": "node",
    "id": 2267300887,
    "lat": 51.3582317,
    "lon": 12.3983178,
    "tags": {
      "bench": "yes",
      "bin": "yes",
      "bus": "yes",
      "highway": "bus_stop",
      "lit": "yes",
      "local_ref": "0540",
      "name": "Rackwitzer Straße",
      "public_transport": "platform",
      "shelter": "yes",
      "tactile_paving": "yes"
    }
  },
  {
    "type": "node",
    "id": 2267311984,
    "lat": 51.3761501,
    "lon": 12.3841791,
    "tags": {
      "bench": "yes",
      "bin": "yes",
      "bus": "yes",
      "highway": "bus_stop",
      "lit": "yes",
      "name": "Delitzscher/Essener Straße",
      "network": "Mitteldeutscher Verkehrsverbund",
      "operator": "Leipziger Verkehrsbetriebe",
      "public_transport": "platform",
      "shelter": "yes",
      "tactile_paving": "yes",
      "wheelchair": "limited"
    }
  },
  {
    "type": "node",
    "id": 2267316451,
    "lat": 51.3758868,
    "lon": 12.3790340,
    "tags": {
      "bench": "yes",
      "bin": "yes",
      "bus": "yes",
      "check_date:shelter": "2024-03-16",
      "highway": "bus_stop",
      "lit": "yes",
      "local_ref": "0611",
      "name": "Gohlis-Nord, Virchowstraße",
      "public_transport": "platform",
      "shelter": "yes",
      "tactile_paving": "no"
    }
  },
  {
    "type": "node",
    "id": 2267323672,
    "lat": 51.3759926,
    "lon": 12.3699198,
    "tags": {
      "bench": "yes",
      "bin": "yes",
      "bus": "yes",
      "check_date:shelter": "2024-01-16",
      "highway": "bus_stop",
      "lit": "yes",
      "local_ref": "0610",
      "name": "Franz-Mehring-Straße",
      "public_transport": "platform",
      "shelter": "yes",
      "tactile_paving": "no"
    }
  },
  {
    "type": "node",
    "id": 2267323683,
    "lat": 51.3761688,
    "lon": 12.3698407,
    "tags": {
      "bench": "yes",
      "bin": "yes",
      "bus": "yes",
      "check_date:shelter": "2024-01-16",
      "highway": "bus_stop",
      "lit": "yes",
      "local_ref": "0610",
      "name": "Franz-Mehring-Straße",
      "public_transport": "platform",
      "shelter": "yes",
      "tactile_paving": "no"
    }
  },
  {
    "type": "node",
    "id": 2267416359,
    "lat": 51.3761932,
    "lon": 12.3644394,
    "tags": {
      "bench": "no",
      "bus": "yes",
      "highway": "bus_stop",
      "name": "Bremer Straße",
      "public_transport": "platform",
      "shelter": "no"
    }
  },
  {
    "type": "node",
    "id": 2267423600,
    "lat": 51.3749236,
    "lon": 12.3554679,
    "tags": {
      "bench": "no",
      "bin": "yes",
      "bus": "yes",
      "highway": "bus_stop",
      "lit": "yes",
      "local_ref": "0608",
      "name": "Olbrichtstraße",
      "public_transport": "platform",
      "shelter": "no",
      "tactile_paving": "yes",
      "wheelchair": "yes"
    }
  },
  {
    "type": "node",
    "id": 2267435191,
    "lat": 51.3753109,
    "lon": 12.3457670,
    "tags": {
      "bench": "yes",
      "bin": "yes",
      "bus": "yes",
      "highway": "bus_stop",
      "lit": "yes",
      "local_ref": "0607",
      "name": "Sternsiedlung Nord",
      "public_transport": "platform",
      "shelter": "yes",
      "tactile_paving": "yes",
      "wheelchair": "yes"
    }
  },
  {
    "type": "node",
    "id": 2267445829,
    "lat": 51.3725818,
    "lon": 12.3430719,
    "tags": {
      "bench": "yes",
      "bin": "yes",
      "bus": "yes",
      "highway": "bus_stop",
      "kerb": "raised",
      "kerb:approach_aid": "no",
      "lit": "yes",
      "local_ref": "0703",
      "name": "S-Bahnhof Slevogtstraße",
      "network": "MDV",
      "passenger_information_display": "no",
      "public_transport": "platform",
      "shelter": "yes",
      "tactile_paving": "yes",
      "wheelchair": "yes"
    }
  },
  {
    "type": "node",
    "id": 2267445830,
    "lat": 51.3726739,
    "lon": 12.3429034,
    "tags": {
      "bench": "no",
      "bin": "yes",
      "bus": "yes",
      "highway": "bus_stop",
      "kerb": "raised",
      "kerb:approach_aid": "no",
      "lit": "yes",
      "local_ref": "0703",
      "name": "S-Bahnhof Slevogtstraße",
      "network": "MDV",
      "passenger_information_display": "no",
      "public_transport": "platform",
      "shelter": "no",
      "tactile_paving": "yes",
      "wheelchair": "yes"
    }
  },
  {
    "type": "node",
    "id": 2267451098,
    "lat": 51.3736838,
    "lon": 12.3244141,
    "tags": {
      "bench": "yes",
      "bin": "yes",
      "bus": "yes",
      "check_date:shelter": "2023-12-03",
      "highway": "bus_stop",
      "lit": "yes",
      "local_ref": "0602",
      "name": "Wahren",
      "public_transport": "platform",
      "shelter": "yes",
      "tactile_paving": "yes",
      "wheelchair": "yes"
    }
  },
  {
    "type": "node",
    "id": 2281950198,
    "lat": 51.3919099,
    "lon": 12.4435779,
    "tags": {
      "bench": "yes",
      "bus": "yes",
      "highway": "bus_stop",
      "name": "Portitzmühlweg",
      "network": "MDV",
      "network:wikidata": "Q1742463",
      "network:wikipedia": "de:Mitteldeutscher Verkehrsverbund",
      "operator": "LVB",
      "public_transport": "platform",
      "ref_name": "Plaußig (Leipzig), Portitzmühlweg",
      "shelter": "yes",
      "tactile_paving": "yes"
    }
  },
  {
    "type": "node",
    "id": 2288857441,
    "lat": 51.3721636,
    "lon": 12.4281303,
    "tags": {
      "bus": "yes",
      "highway": "bus_stop",
      "name": "S-Bf. Thekla",
      "network": "MDV",
      "public_transport": "stop_position"
    }
  },
  {
    "type": "node",
    "id": 2302476454,
    "lat": 51.3464614,
    "lon": 12.4792242,
    "tags": {
      "bus": "yes",
      "highway": "bus_stop",
      "name": "Sommerfeld",
      "public_transport": "stop_position",
      "wheelchair": "limited"
    }
  },
  {
    "type": "node",
    "id": 2360836780,
    "lat": 51.3757607,
    "lon": 12.3790542,
    "tags": {
      "bench": "yes",
      "bin": "yes",
      "bus": "yes",
      "check_date:shelter": "2024-03-16",
      "highway": "bus_stop",
      "lit": "yes",
      "name": "Gohlis-Nord, Virchowstraße",
      "public_transport": "platform",
      "shelter": "yes",
      "tactile_paving": "no"
    }
  },
  {
    "type": "node",
    "id": 2374163977,
    "lat": 51.3433849,
    "lon": 12.2943908,
    "tags": {
      "bus": "yes",
      "highway": "bus_stop",
      "name": "Rückmarsdorf, Zur Kaninchenfarm",
      "network": "Mitteldeutscher Verkehrsverbund",
      "network:short": "MDV",
      "network:wikidata": "Q1742463",
      "public_transport": "stop_position",
      "ref": "1006",
      "source:name": "survey",
      "source:ref": "survey"
    }
  },
  {
    "type": "node",
    "id": 2414711907,
    "lat": 51.3799143,
    "lon": 12.3222422,
    "tags": {
      "bus": "yes",
      "highway": "bus_stop",
      "name": "S-Bahnhof Wahren",
      "public_transport": "stop_position"
    }
  },
  {
    "type": "node",
    "id": 2441255292,
    "lat": 51.3371669,
    "lon": 12.4435019,
    "tags": {
      "bus": "yes",
      "highway": "bus_stop",
      "name": "Uhlandweg",
      "operator": "LVB",
      "public_transport": "stop_position",
      "shelter": "no"
    }
  },
  {
    "type": "node",
    "id": 2441263489,
    "lat": 51.3369302,
    "lon": 12.4433446,
    "tags": {
      "bus": "yes",
      "highway": "bus_stop",
      "name": "Uhlandweg",
      "operator": "LVB",
      "public_transport": "stop_position",
      "shelter": "no"
    }
  },
  {
    "type": "node",
    "id": 2441268538,
    "lat": 51.3258386,
    "lon": 12.4355165,
    "tags": {
      "bus": "yes",
      "highway": "bus_stop",
      "name": "Handwerkerhof",
      "name:ja": "ハンドヴェルカーホフ",
      "network": "MDV",
      "operator": "LVB",
      "public_transport": "stop_position",
      "tactile_paving": "no"
    }
  },
  {
    "type": "node",
    "id": 2441275439,
    "lat": 51.3212289,
    "lon": 12.4291177,
    "tags": {
      "bench": "no",
      "bin": "yes",
      "bus": "yes",
      "check_date:shelter": "2022-01-15",
      "departures_board": "timetable",
      "highway": "bus_stop",
      "kerb": "raised",
      "lit": "yes",
      "name": "Oberdorfstraße",
      "network": "Mitteldeutscher Verkehrsverbund",
      "network:short": "MDV",
      "network:wikidata": "Q1742463",
      "operator": "Leipziger Transport und Logistik Betriebe GmbH",
      "passenger_information_display": "no",
      "public_transport": "platform",
      "shelter": "no",
      "tactile_paving": "no"
    }
  },
  {
    "type": "node",
    "id": 2486323610,
    "lat": 51.2770217,
    "lon": 12.3091211,
    "tags": {
      "bus": "yes",
      "highway": "bus_stop",
      "name": "Knautkleeberg",
      "network": "MDV",
      "operator": "LVB",
      "public_transport": "stop_position",
      "shelter": "yes"
    }
  },
  {
    "type": "node",
    "id": 2546215636,
    "lat": 51.2773048,
    "lon": 12.3095499,
    "tags": {
      "bus": "yes",
      "highway": "bus_stop",
      "name": "Knautkleeberg",
      "network": "MDV",
      "operator": "LVB",
      "public_transport": "stop_position",
      "shelter": "yes"
    }
  },
  {
    "type": "node",
    "id": 2573478208,
    "lat": 51.4197286,
    "lon": 12.4420536,
    "tags": {
      "bus": "yes",
      "highway": "bus_stop",
      "name": "Hohenheida, Lindengasse",
      "public_transport": "stop_position",
      "wheelchair": "limited"
    }
  },
  {
    "type": "node",
    "id": 2632189486,
    "lat": 51.3763847,
    "lon": 12.4004826,
    "tags": {
      "bench": "yes",
      "bin": "yes",
      "bus": "yes",
      "highway": "bus_stop",
      "lit": "yes",
      "name": "Rosenowstraße",
      "network": "Mitteldeutscher Verkehrsverbund",
      "operator": "Leipziger Verkehrsbetriebe",
      "public_transport": "platform",
      "route_ref": "80",
      "shelter": "yes",
      "tactile_paving": "yes",
      "wheelchair": "yes"
    }
  },
  {
    "type": "node",
    "id": 2632189496,
    "lat": 51.3760249,
    "lon": 12.4024103,
    "tags": {
      "bench": "yes",
      "bin": "yes",
      "bus": "yes",
      "highway": "bus_stop",
      "lit": "yes",
      "name": "Rosenowstraße",
      "network": "Mitteldeutscher Verkehrsverbund",
      "operator": "Leipziger Verkehrsbetriebe",
      "public_transport": "platform",
      "route_ref": "80",
      "shelter": "yes",
      "tactile_paving": "yes",
      "wheelchair": "yes"
    }
  },
  {
    "type": "node",
    "id": 2677019189,
    "lat": 51.3234367,
    "lon": 12.4809720,
    "tags": {
      "bench": "yes",
      "bin": "yes",
      "bus": "yes",
      "highway": "bus_stop",
      "lit": "yes",
      "name": "Baalsdorfer Straße",
      "network": "MDV",
      "operator": "LVB",
      "passenger_information_display": "no",
      "public_transport": "platform",
      "ref": "0755",
      "shelter": "yes",
      "tactile_paving": "no"
    }
  },
  {
    "type": "node",
    "id": 2692588527,
    "lat": 51.3239881,
    "lon": 12.4011366,
    "tags": {
      "bench": "yes",
      "bin": "yes",
      "bus": "yes",
      "covered": "yes",
      "highway": "bus_stop",
      "lit": "yes",
      "name": "Technisches Rathaus",
      "network": "Mitteldeutscher Verkehrsverbund",
      "network:wikidata": "Q1742463",
      "operator": "Leipziger Verkehrsbetriebe",
      "passenger_information_display": "yes",
      "public_transport": "platform",
      "route_ref": "74",
      "shelter": "yes",
      "tactile_paving": "yes",
      "wheelchair": "yes"
    }
  },
  {
    "type": "node",
    "id": 2694647886,
    "lat": 51.3251078,
    "lon": 12.4020497,
    "tags": {
      "bench": "yes",
      "bin": "yes",
      "bus": "yes",
      "covered": "yes",
      "departures_board": "timetable",
      "highway": "bus_stop",
      "lit": "no",
      "name": "Technisches Rathaus",
      "network": "Mitteldeutscher Verkehrsverbund",
      "network:short": "MDV",
      "network:wikidata": "Q1742463",
      "operator": "Leipziger Verkehrsbetriebe",
      "passenger_information_display": "yes",
      "public_transport": "platform",
      "ref": "0107",
      "route_ref": "70, N8",
      "shelter": "yes",
      "tactile_paving": "yes",
      "wheelchair": "yes"
    }
  },
  {
    "type": "node",
    "id": 2694967115,
    "lat": 51.3028566,
    "lon": 12.4644563,
    "tags": {
      "bus": "yes",
      "highway": "bus_stop",
      "name": "Walter-Heise-Straße",
      "operator": "LVB",
      "public_transport": "stop_position"
    }
  },
  {
    "type": "node",
    "id": 2757859637,
    "lat": 51.3800804,
    "lon": 12.3219577,
    "tags": {
      "bus": "yes",
      "highway": "bus_stop",
      "name": "S-Bahnhof Wahren",
      "public_transport": "stop_position",
      "tactile_paving": "yes"
    }
  },